,Organization,Name,Farm,Address,Latitude,Longitude
0,Cataratas do Iguaçu Produtos Orgânicos,Cataratas do Iguaçu Produtos Orgânicos LTDA - Fazenda Santa Barbara,Fazenda Santa Bárbara,Povoado Venda Seca – Goiatuba/Goiás,"-17.976491821986123, -49.65875427640442",
1,Fundação de Apoio à Pesquisa do Corredor de Exportação Norte “Irineu Alcides Bays,Fundação de Apoio à Pesquisa do Corredor de Exportação Norte “Irineu Alcides Bays” - Fapcen Grupo 4,Condomínio Milla,"Rod. PI 392, km 45, Baixa Grandedo Ribeiro/PI",-8.248144444444444,-45.254925
2,Fundação de Apoio à Pesquisa do Corredor de Exportação Norte “Irineu Alcides Bays,Fundação de Apoio à Pesquisa do Corredor de Exportação Norte “Irineu Alcides Bays” - Fapcen Grupo 4,Fazenda Boa Esperança,"Rod. Transcerrado, km 51,Uruçui/PI",-8.336391666666668,-44.418369444444444
3,Fundação de Apoio à Pesquisa do Corredor de Exportação Norte “Irineu Alcides Bays,Fundação de Apoio à Pesquisa do Corredor de Exportação Norte “Irineu Alcides Bays” - Fapcen Grupo 4,Fazenda Itapuá,"MA 006, Transpenitente, TassoFragoso/MA",-8.878375,-46.06551111111111
4,Fazenda Santa Cruz,Fazenda Santa Cruz,Fazenda Santa Cruz,,-21.64082748233687,-45.80302
5,Serra da Pintura,Serra da Pintura,Serra da Pintura,Santa Fé de Goías/GO,-15.569666666666667,-51.20858333333334
6,Tecnosol Consultoria Rural,Tecnosol Consultoria Rural LTDA,FAZENDA CACHOEIRA,Orizona sentido povoado da Cachoeira no km 22 a esquerda onde localiza-se o imóvel. Orizona-GO (Brasil),-16.96518361395266, -48.14075401073855
7,Tecnosol Consultoria Rural,Tecnosol Consultoria Rural LTDA,FAZENDA MORADA DO MUTUM,Orizona GO-219 sentido Distrito de Egerineu Teixeira no km 07 a direita onde localiza-se o imóvel. Orizona-GO (Brasil),,
8,Tecnosol Consultoria Rural,Tecnosol Consultoria Rural LTDA,FAZENDA AREIAS DE BAIXO,Orizona GO-219 sentido Montes Claros após o povoado seguir por mais 2 km virar a esquerda onde se localiza o imóvel(Faz. Areias de Baixo). Orizona-GO (Brasil),,
9,Tecnosol Consultoria Rural,Tecnosol Consultoria Rural LTDA,FAZENDA MORRO ALTO,Orizona GO-219 sentido Distrito de Egerineu Teixeira no km 08 a esquerda onde localiza- se o imóvel. Orizona-GO (Brasil),,
10,Tecnosol Consultoria Rural,Tecnosol Consultoria Rural LTDA,FAZENDA TAQUARAL DE CIMA,Orizona/Caraiba GO 330 após 20 km virar a direita e seguir por mais 4 km até o imóvel.Vianopolis-GO (Brasil),-16.936003708292695,-48.291935761095644
11,Tecnosol Consultoria Rural,Tecnosol Consultoria Rural LTDA,FAZENDA ENGENHO VELHO,Estrada Silvânia S Miguel Passa Quatro km 15,,
12,Tecnosol Consultoria Rural,Tecnosol Consultoria Rural LTDA,FAZENDA MUCAMBO,GO 437 KM 24 A DREITA 6KM,,
13,Tecnosol Consultoria Rural,Tecnosol Consultoria Rural LTDA,FAZENDA RIO DO PEIXE,Rod. GO 330 Km 109 a direita 8 km,-14.482765549430829, -48.63779947532951
14,Tecnosol Consultoria Rural,Tecnosol Consultoria Rural LTDA,FAZENDA PONTE ALTA,"GO 330 sentido Leopoldo de Bulhões trevo sentido a Cruzeiro km12, 2 km a esquerda",-15.875724813297035,-51.772552603436296
15,Tecnosol Consultoria Rural,Tecnosol Consultoria Rural LTDA,FAZENDA ENGENHO VELHO,Estrada Silvânia S Miguel Passa Quatro km 16,,
16,Tecnosol Consultoria Rural,Tecnosol Consultoria Rural LTDA,FAZENDA SANTA RITA,GO 330 KM 212 A ESQUERDA 14 KM,-15.428777726417373,-51.603984882034545
17,Agropecuaria Andrade,Agropecuaria Andrade,FAZENDA ALVORADA,,-52.72437222222222,-18.490655555555556
18,Agropecuaria Andrade,Agropecuaria Andrade,ESTANCIA ETANER,,-52.828250000000004,-18.738244444444444
19,Agropecuaria Andrade,Agropecuaria Andrade,FAZENDA SANTO ANTONIO,,-54.79999166666666,-20.387655555555554
20,Agropecuaria Andrade,Agropecuaria Andrade,FAZENDA SAVANA,,-52.74301388888889,-18.65628611111111
21,GGF Agro,GGF Agro LTDA,Fazenda Água Santa,"Rodovia BR163, KM 675, S/N, Zona Rural, A esquerda mais 5 KM, Lucas do Rio Verde/MT",-13.18923888888889,-56.03552777777777
22,GGF Agro,GGF Agro LTDA,Fazenda Pau da Onça,"RODOVIA MT 485, KM 100, S/N, Zona Rural, Estrada do Moroco, Santa Rita do Trivelato/MT",-13.666558333333334,-55.39378611111111
23,Archer-Daniels-Midland Company (ADM),ADM do Brasil -Grupo Mato Grosso do Sul,Fazenda Zilmar,São Gabriel do Oeste – MS,-19.254047222222223,-54.52487222222222
24,Archer-Daniels-Midland Company (ADM),ADM do Brasil -Grupo Mato Grosso do Sul,Fazenda Flamboyant,São Gabriel do Oeste – MS,-19.247997222222224,-54.49455277777778
25,Archer-Daniels-Midland Company (ADM),ADM do Brasil -Grupo Mato Grosso do Sul,Fazenda Cachoeira,São Gabriel do Oeste – MS,-19.50088611111111,-54.59820833333334
26,Archer-Daniels-Midland Company (ADM),ADM do Brasil -Grupo Mato Grosso do Sul,Fazenda São Luiz,São Gabriel do Oeste – MS,-19.21662222222222,-54.54965833333333
27,Archer-Daniels-Midland Company (ADM),ADM do Brasil -Grupo Mato Grosso do Sul,Fazenda Boa Vista,São Gabriel do Oeste – MS,-19.41153333333333,-54.63433611111111
28,Archer-Daniels-Midland Company (ADM),ADM do Brasil -Grupo Mato Grosso do Sul,Fazenda Nascente do Brioso,São Gabriel do Oeste – MS,-19.531880555555556,-54.52256388888889
29,Archer-Daniels-Midland Company (ADM),ADM do Brasil -Grupo Mato Grosso do Sul,Fazenda Minina Linda,São Gabriel do Oeste – MS,-19.408052777777776,-54.61779166666667
30,Archer-Daniels-Midland Company (ADM),ADM do Brasil -Grupo Mato Grosso do Sul,Fazenda Ponte de Pedra 2,São Gabriel do Oeste – MS,-19.33356388888889,-54.49084444444445
31,Archer-Daniels-Midland Company (ADM),ADM do Brasil -Grupo Mato Grosso do Sul,Fazenda Suez,Sonora – MS,-17.628219444444444,-54.55594444444444
32,Cerquality Consultoria em Sustentabilidade e Certificação,Cerquality Consultoria em Sustentabilidade e Certificação LTDA Grupo I,FAZENDA AGRO BOA VISTA,BALSAS - MA,-8.59715,-46.639218
33,Cerquality Consultoria em Sustentabilidade e Certificação,Cerquality Consultoria em Sustentabilidade e Certificação LTDA Grupo I,FAZENDA CERTEZA,BALSAS - MA,-8.118607,-45.870153
34,Cerquality Consultoria em Sustentabilidade e Certificação,Cerquality Consultoria em Sustentabilidade e Certificação LTDA Grupo I,FAZENDA CHAPADÃO,TASSO FRAGOSO – MA,-8.651808,-45.945183
35,Cerquality Consultoria em Sustentabilidade e Certificação,Cerquality Consultoria em Sustentabilidade e Certificação LTDA Grupo I,FAZENDA SAPUCAÍ,TASSO FRAGOSO - MA,-8.297231,-45.769278
36,Cerquality Consultoria em Sustentabilidade e Certificação,Cerquality Consultoria em Sustentabilidade e Certificação LTDA Grupo I,FAZENDA GUAÍRA,FORTALEZA DOS NOGUEIRAS – MA,-7.088961,-45.945405
37,Cerquality Consultoria em Sustentabilidade e Certificação,Cerquality Consultoria em Sustentabilidade e Certificação LTDA Grupo I,FAZENDA CAIUÁ,BALSAS - MA,-8.430479,-46.618932
38,Cerquality Consultoria em Sustentabilidade e Certificação,Cerquality Consultoria em Sustentabilidade e Certificação LTDA Grupo I,FAZENDA SEIS IRMÃOS,RIACHÃO - MA,-7.447427,-46.3264
39,Cerquality Consultoria em Sustentabilidade e Certificação,Cerquality Consultoria em Sustentabilidade e Certificação LTDA Grupo I,FAZENDA JAPURÁ,SANTA FILOMENA - PI,-8.721907,-45.570364
40,Cerquality Consultoria em Sustentabilidade e Certificação,Cerquality Consultoria em Sustentabilidade e Certificação LTDA Grupo I,FAZENDA ALVORADA,SÃO DESIDÉRIO - BA,-12.423922,-46.2506222
41,Cerquality Consultoria em Sustentabilidade e Certificação,Cerquality Consultoria em Sustentabilidade e Certificação LTDA Grupo I,FAZENDA TAKAHASHI,BALSAS - MA,-8.678837,-46.665834
42,Cerquality Consultoria em Sustentabilidade e Certificação,Cerquality Consultoria em Sustentabilidade e Certificação LTDA Grupo I,FAZENDA LAGOA ENCANTADA,PRIMAVERA DO LESTE - MT,-15.266706,-54.263947
43,Cerquality Consultoria em Sustentabilidade e Certificação,Cerquality Consultoria em Sustentabilidade e Certificação LTDA Grupo I,FAZENDA ESCONDIDO,BALSAS - MA,-7.963056,-45.92465
44,Cerquality Consultoria em Sustentabilidade e Certificação,Cerquality Consultoria em Sustentabilidade e Certificação LTDA Grupo I,FAZENDA PIRACICABA,TASSO FRAGOSO - MA,-7.965008,-45.752163
45,Cerquality Consultoria em Sustentabilidade e Certificação,Cerquality Consultoria em Sustentabilidade e Certificação LTDA Grupo I,FAZENDA ANGICOS,TASSO FRAGOSO - MA,-8.125459,-45.789736
46,Cerquality Consultoria em Sustentabilidade e Certificação,Cerquality Consultoria em Sustentabilidade e Certificação LTDA Grupo I,FAZENDA GUARANI,SÃO DESIDÉRIO - BA,-12.902398,-46.194599
47,Cerquality Consultoria em Sustentabilidade e Certificação,Cerquality Consultoria em Sustentabilidade e Certificação LTDA Grupo I,FAZENDA ORQUÍDEAS,BARREIRAS - BA,-11.84223,-46.244109
48,Cerquality Consultoria em Sustentabilidade e Certificação,Cerquality Consultoria em Sustentabilidade e Certificação LTDA Grupo I,FAZENDA CAMPO ABERTO BARREIRAS – BA,BARREIRAS - BA,-11.793402,-45.958693
49,Cerquality Consultoria em Sustentabilidade e Certificação,Cerquality Consultoria em Sustentabilidade e Certificação LTDA Grupo I,FAZENDA BAIXÃO PRETO,RIACHÃO - MA,-8.191716,-46.461772
50,Cerquality Consultoria em Sustentabilidade e Certificação,Cerquality Consultoria em Sustentabilidade e Certificação LTDA Grupo I,FAZENDA  AGROMANTOVA  - BATAVO,BALSAS - MA,-8.520959,-46.749241
51,Cerquality Consultoria em Sustentabilidade e Certificação,Cerquality Consultoria em Sustentabilidade e Certificação LTDA Grupo I,FAZENDA TABATINGA,ALTO PARNAÍBA – MA,-8.9949,-46.559639
52,Cerquality Consultoria em Sustentabilidade e Certificação,Cerquality Consultoria em Sustentabilidade e Certificação LTDA Grupo I,FAZENDA TERRA NOVA,TASSO FRAGOSO - MA,-8.672696,-46.011546
53,Cerquality Consultoria em Sustentabilidade e Certificação,Cerquality Consultoria em Sustentabilidade e Certificação LTDA Grupo I,FAZENDA ARAPUÃ,BALSAS - MA,-8.12433,-46.14611
54,Cerquality Consultoria em Sustentabilidade e Certificação,Cerquality Consultoria em Sustentabilidade e Certificação LTDA Grupo I,FAZENDA APUÃ,BALSAS - MA,-8.041355,-45.976106
55,Cerquality Consultoria em Sustentabilidade e Certificação,Cerquality Consultoria em Sustentabilidade e Certificação LTDA Grupo I,FAZENDA NOSSA SENHORA DAS GRAÇAS,TASSO FRAGOSO - MA,-8.135828,-46.133402
56,Cerquality Consultoria em Sustentabilidade e Certificação,Cerquality Consultoria em Sustentabilidade e Certificação LTDA Grupo I,FAZENDA SAMA,LUIZ EDUARDO MAGALHÃES - BA,-12.214789,-45.958782
57,Cerquality Consultoria em Sustentabilidade e Certificação,Cerquality Consultoria em Sustentabilidade e Certificação LTDA Grupo I,FAZENDA CONDOMINIO IRMÃOS GATTO,BARREIRAS - BA,-11.83768,-46.28957
58,Cerquality Consultoria em Sustentabilidade e Certificação,Cerquality Consultoria em Sustentabilidade e Certificação LTDA Grupo I,FAZENDA CABECEIRA,TASSO FRAGOSO - MA,-8.447452,-45.937696
59,Cerquality Consultoria em Sustentabilidade e Certificação,Cerquality Consultoria em Sustentabilidade e Certificação LTDA Grupo I,FAZENDA TEATINO,BALSAS - MA,-7.960087,-45.809129
60,Cerquality Consultoria em Sustentabilidade e Certificação,Cerquality Consultoria em Sustentabilidade e Certificação LTDA Grupo I,FAZENDA TRADIÇÃO,RIBEIRO GONÇALVES - PI,-7.798658,-45.054773
61,Cerquality Consultoria em Sustentabilidade e Certificação,Cerquality Consultoria em Sustentabilidade e Certificação LTDA Grupo I,FAZENDA GBC,CORRENTINA - BA,-13.504164,-46.113412
62,Cerquality Consultoria em Sustentabilidade e Certificação,Cerquality Consultoria em Sustentabilidade e Certificação LTDA Grupo I,FAZENDA PARANÁ,CORRENTINA - BA,-13.740469,-46.140271
63,Cerquality Consultoria em Sustentabilidade e Certificação,Cerquality Consultoria em Sustentabilidade e Certificação LTDA Grupo I,FAZENDA PORTO ALEGRE,CORRENTINA - BA,-12.804929,-45.656859
64,Cerquality Consultoria em Sustentabilidade e Certificação,Cerquality Consultoria em Sustentabilidade e Certificação LTDA Grupo I,FAZENDA FAVEIRA,TASSO FRAGOSO - MA,-7.849968,-45.778352
65,Cerquality Consultoria em Sustentabilidade e Certificação,Cerquality Consultoria em Sustentabilidade e Certificação LTDA Grupo I,FAZENDA ALVORADA – FRITZEN,MONTE ALEGRE - PI,-9.375476,-45.35193833333334
66,Cerquality Consultoria em Sustentabilidade e Certificação,Cerquality Consultoria em Sustentabilidade e Certificação LTDA - Grupo IV,Fazenda Santana,Riachão das Neves - BA,-11.676155555555555,-45.72196666666667
67,Cerquality Consultoria em Sustentabilidade e Certificação,Cerquality Consultoria em Sustentabilidade e Certificação LTDA - Grupo IV,Fazenda Santa Clara,Bom Jesus - PI,-9.144477777777777,-45.06604722222222
68,Cerquality Consultoria em Sustentabilidade e Certificação,Cerquality Consultoria em Sustentabilidade e Certificação LTDA - Grupo IV,Fazenda Agro Chapada,Paranatinga - MT,-13.55915,-54.31106944444444
69,Cerquality Consultoria em Sustentabilidade e Certificação,Cerquality Consultoria em Sustentabilidade e Certificação LTDA - Grupo IV,Fazenda Pau Brasil,Campos Lindos - TO,-8.068769444444444,-46.562949999999994
70,Cerquality Consultoria em Sustentabilidade e Certificação,Cerquality Consultoria em Sustentabilidade e Certificação LTDA - Grupo IV,Fazenda Santo Antônio Khon,Formosa do Rio Petro – BA,-8.237441666666665,-46.65549722222222
71,Cerquality Consultoria em Sustentabilidade e Certificação,Cerquality Consultoria em Sustentabilidade e Certificação LTDA - Grupo IV,Fazenda Sapucai,Luiz Eduardo Magalhães – BA,-12.250475,-45.86673888888889
72,Cerquality Consultoria em Sustentabilidade e Certificação,Cerquality Consultoria em Sustentabilidade e Certificação LTDA - Grupo IV,Fazenda Sapucai Semear,Riachão das Neves – BA,-11.4926,-45.230472222222225
73,Cerquality Consultoria em Sustentabilidade e Certificação,Cerquality Consultoria em Sustentabilidade e Certificação LTDA - Grupo IV,Fazenda Santo Antônio,Barreiras - BA,-11.71511111111111,-45.97925277777778
74,GMS Agronegócio ,GMS Agronegócio Ltda,Fazenda Uirapuru,Nova Mutum – MT,-14.143727777777777,-56.63576527777778
75,Produzindo Certo,Produzindo Certo–Grupo Castrolanda,Agropecuária Romi,"Agropecuária Romi, Estrada Capão Alto, Km 6, Castro/PR",-49.902293,-24.739889
76,Produzindo Certo,Produzindo Certo–Grupo Castrolanda,Bom Sucesso,"Fazenda Bom Sucesso, Bairro Bom Sucesso, Itararé/SP",-49.182219,-24.154856
77,Girassol Agrícola,Girassol Agrícola Ltda,Fazenda Girassol,"Rodovia BR 364, Km 117, Zona Rural, Pedra Preta - Mato Grosso, Brasil.",-16.8375,-54.04222222222222
78,Fazenda Modelo,Fazenda Modelo,Fazenda Modelo,"Rodovia BR 070 - KM 350, Campo Verde, Mato Grosso, Brasil",-15.477500000000001,-54.91222222222222
79,Agropastoril Jotabasso,Agropastoril Jotabasso Ltda-Fazenda Verde,FAZENDA VERDE,Rondonópolis- MT,-16.58431388888889,-54.85796944444444
80,Amaggi,Amaggi Exp Imp Ltda–Grupo III,25 de Dezembro,"ESTRADA VERA X FELIZ NATAL KM 23, SORRISO-MT",-12.2564,- 55.0715
81,Amaggi,Amaggi Exp Imp Ltda–Grupo III,Boa Esperança,"ROD MT 338 KM 62, SORRISO-MT",-12.8999,- 56.3688
82,Amaggi,Amaggi Exp Imp Ltda–Grupo III,Caimbé,"ROD MT 130 KM 80 + 15KM A ESQUERDA, SANTO ANTONIO DO LESTE-MT",-14.8251,- 54.1653
83,Amaggi,Amaggi Exp Imp Ltda–Grupo III,Calixbento,"ROD BR 153, KM 203, S/N, MATUPÁ-MT",-10.8249,- 55.9555
84,Amaggi,Amaggi Exp Imp Ltda–Grupo III,Carajás,"ROD BR 364 KM 1107, S/N, SAPEZAL-MT",-13.4167,- 58.7736
85,Amaggi,Amaggi Exp Imp Ltda–Grupo III,Cedro,"ESTRADA LINHA 12 SETOR 7 GLEBA, LUCAS DO RIO VERDE-MT",-12.9772,- 56.1877
86,Amaggi,Amaggi Exp Imp Ltda–Grupo III,Edwirges,"ESTRADA ALICE LOTE 114, SORRISO-MT",-12.2236,- 55.2898
87,Amaggi,Amaggi Exp Imp Ltda–Grupo III,Embu,"ESTRADA DO RODEADOR, MATUPÁ-MT",-9.7836,- 57.6221
88,Amaggi,Amaggi Exp Imp Ltda–Grupo III,Independencia,"ROD MT 336, PASSANDO SANTO ANTONIO DO LESTE + 12 KM A ESQUERDA, S/N, SANTO ANTONIO DO LESTE/MT",-14.8578,- 53.4922
89,Amaggi,Amaggi Exp Imp Ltda–Grupo III,Leonardo,"BR 364 KM 60 + 35 A DIREITA, S/N, ZONA RURAL Pedra Preta/MT",-17.0215,- 54.1986
90,Amaggi,Amaggi Exp Imp Ltda–Grupo III,Maria Madalena,"COMUNIDADE RONDON, MATUPÁ-MT",-10557,- 56.1193
91,Amaggi,Amaggi Exp Imp Ltda–Grupo III,Martelli II,ROD MT 338 KM 117 A ESQ MAIS 13 KM- RONDONÓPOLIS/MT,-12.4967,-56.7382
92,Amaggi,Amaggi Exp Imp Ltda–Grupo III,Mourão,"ROD BR 070 KM 349, CAMPO VERDE-MT",-15.4738,- 54.9054
93,Amaggi,Amaggi Exp Imp Ltda–Grupo III,Mutum,"ROD BR 070 KM 322 + 20KM A DIREITA, DOM AQUINO-MT",-15.4043,- 54.6051
94,Amaggi,Amaggi Exp Imp Ltda–Grupo III,Nossa Senhora Aparecida,"ROD DOS PIONEIROS MT 222 S/N, IPIRANGA DO NORTE-MT",-11.9215,- 56.1551
95,Amaggi,Amaggi Exp Imp Ltda–Grupo III,Nova/Horizonte/Passo Fundo,"ROD MT 336 SENTIDO TREVO DO GAUCHO P/ SANTO ANTONIO DO LESTE, KM 20 A ESQUERDA, S/N, SANTO ANTONIO DO LESTE/MT",-14.9278,- 53.8860
96,Amaggi,Amaggi Exp Imp Ltda–Grupo III,Pirapó,"ROD MT 242, KM 34,8 + 10KM, SORRISO-MT",-12.2178,- 55.8519
97,Amaggi,Amaggi Exp Imp Ltda–Grupo III,Planta,"ROD MT 235 KM 121 + 45 KM A ESQUERDA, S/N, SAPEZAL-MT",-13.8894,- 58.9020
98,Amaggi,Amaggi Exp Imp Ltda–Grupo III,Ponte de Pedra/Agrop Boa Vista,"RODOVIA BR 163 KM 102 A DIREITA MAIS 20 KM, RONDONÓPOLIS-MT",-16.7098,- 54.8092
99,Amaggi,Amaggi Exp Imp Ltda–Grupo III,Primavera/Flor do Campo,"ROD MT 130 KM 165, 40 KM DE PVA DO LESTE SENTIDO PARANATINGA - S/N - ENTRADA A DIREITA - PRIMAVERA DO LESTE",-15258,- 54.1440
100,Amaggi,Amaggi Exp Imp Ltda–Grupo III,Quatrilho,"LINHA MOROCÓ, KM 55 S/N, SORRISO – MT",-13.36,- 55.6689
101,Amaggi,Amaggi Exp Imp Ltda–Grupo III,Reata/Goiás,"RODOVIA MT 430 KM 59 A DIREITA MAIS 12 KM ATE A SEDE, CONFRESA-MT",-10.3552,- 52.4000
102,Amaggi,Amaggi Exp Imp Ltda–Grupo III,Reunidas São Roberto,"LINHA PAU OCO À 30 KM A ESQUERDA, RONDONÓPOLIS-MT",-12.6097,- 55.5120
103,Amaggi,Amaggi Exp Imp Ltda–Grupo III,Rio Bonito,"ROD MT 140 SENTIDO PARANATNGA 7 KM + 2 A ESQUERDA, S/N, SORRISO- MT",-13.5218,- 55.0770
104,Amaggi,Amaggi Exp Imp Ltda–Grupo III,Santa Rita,"ROD MT 322, S/N°, MATUPÁ-MT",-10.4447,- 54.1320
105,Amaggi,Amaggi Exp Imp Ltda–Grupo III,Santin Cavalcante,"ROD MT 404 KM 40, SORRISO-MT",-12.8816,- 55.5958
106,Amaggi,Amaggi Exp Imp Ltda–Grupo III,São Miguel SM5,"RODOVIA BR 163 KM 35, ITIQUIRA-MT",-17.1954,- 54.5083
107,Amaggi,Amaggi Exp Imp Ltda–Grupo III,Tanguro,"ROD MT 320 KM 104 MAIS 20 KM A DIREITA, QUERENCIA-MT",-12.8419,-52.3886
108,Amaggi,Amaggi Exp Imp Ltda–Grupo III,Três Rodas da Barra/São Luiz/Beira Rio,"ROD MT 322 A 25 KM DA SEDE, DISTRITO DE ESPIGÃO DO LESTE, SÃO FELIX DO ARAGUAIA-MT",-11.5182,- 52.4129
109,Aliança da Terra,Aliança da Terra Grupo IV,Água Santa,"Rodovia BR 452, Km 258, CEP: 38170-000, Caixa Postal 21, Perdizes – MG – Brasil",-47.364068,-19.36025
110,Aliança da Terra,Aliança da Terra Grupo IV,Bandeirantes,"Rodovia GO 220, Km 35, esquerda 20 Km, Zona Rural, CEP: 75.915-000, Montividiu – GO – Brasil",-51.367197,-17.42317
111,Aliança da Terra,Aliança da Terra Grupo IV,Boa Esperança,"Rodovia GO 174, Km 39, + 20 Km à direita, Rio Verde – GO – Brasil",-50.985993,-17.373805
112,Aliança da Terra,Aliança da Terra Grupo IV,Boa Vista,"Rodovia GO 405, CEP: 75.980-000, Paraúna – GO – Brasil",-51.461452,-17.354913
113,Aliança da Terra,Aliança da Terra Grupo IV,Bom Jardim e Primavera,"Rodovia GO 220, Km 27, Caixa Postal 515, CEP: 75.901-970, Montividiu – GO – Brasil",-51.461452,-17.354913
114,Aliança da Terra,Aliança da Terra Grupo IV,Bom Jardim (Dorothea),"Rodovia Montividiu-Caiapônia, Km 15 à direita, CEP: 75.915-000, Zona Rural, Montividiu – GO – Brasil",-51.32331,-17.286756
115,Aliança da Terra,Aliança da Terra Grupo IV,Bom Jardim (Marcelo),"Rodovia GO 220, Km 15 à direita, CEP: 75.980-000, Zona Rural, Montividiu – GO – Brasil",-51.329665,-17.281813
116,Aliança da Terra,Aliança da Terra Grupo IV,Brasilanda,"Rodovia GO 174, Km 40 + 1 Km à esquerda, Rio Verde – GO – Brasil",-51.275933,-17.492133
117,Aliança da Terra,Aliança da Terra Grupo IV,Cachoeirinha,"Rodovia GO 220, Km 60, CEP: 75.850-000, Zona Rural, Caiapônia – GO – Brasil",-51.645517,-17.238443
118,Aliança da Terra,Aliança da Terra Grupo IV,Cana Verde,"Rodovia GO 174, Km 90, CEP: 75.850-000, Zona Rural, Rio Verde – GO – Brasil",-51.118167,-17.069333
119,Aliança da Terra,Aliança da Terra Grupo IV,DME,"Rodovia MG 410, Km 51, Zona Rural, Presidente Olegário – MG – Brasil",-46.426303,-18.072217
120,Aliança da Terra,Aliança da Terra Grupo IV,Gameleira,"Rodovia MG 410, Km 51, Presidente Olegário – MG – Brasil",-46.35671,-17.836257
121,Aliança da Terra,Aliança da Terra Grupo IV,Mata do Lobo,"Rodovia BR 452, Km 41 à direita, Rio Verde – GO – Brasil",-50.736345,-18.121277
122,Aliança da Terra,Aliança da Terra Grupo IV,Mauá,"Rodovia GO 174, Km 60 – Montividiu – GO – Brasil",-51.344025,-17.235353
123,Aliança da Terra,Aliança da Terra Grupo IV,Monte Alegre,"Avenida José Walter, nº 845, Setor Morada do Sol, CEP:75.908-780, Rio Verde – GO – Brasil",-51.42451,-17.49837
124,Aliança da Terra,Aliança da Terra Grupo IV,Monte Alegre/ Pindaíbas,"Rodovia GO 333, Km 45, Rio Verde – GO – Brasil",-50.821303,-17.402428
125,Aliança da Terra,Aliança da Terra Grupo IV,Pai Manoel,"Rodovia BR 060, Km 425, Rio Verde – GO – Brasil",-51.28907,-17.739327
126,Aliança da Terra,Aliança da Terra Grupo IV,Paraíso do Rio Preto,"Rodovia BR 452, Km 41, Zona Rural, Rio Verde – GO – Brasil",-50.792807,-18.066978
127,Aliança da Terra,Aliança da Terra Grupo IV,Paraíso Rio Preto e Renala,"Rodovia BR 452, Km 01, Zona Rural, Rio Verde – GO – Brasil",-50.787721,-18083
128,Aliança da Terra,Aliança da Terra Grupo IV,Santa Fé,"Zona Rural, Uberlândia – MG – Brasil",-48.03494,-19.222047
129,Aliança da Terra,Aliança da Terra Grupo IV,Santa Mônica e Felicidade,"Rodovia BR 060, Km 373 + 3 Km à esquerda, CEP: 75.900-000, Zona Rural, Rio Verde – GO – Brasil",-50.812352,-17.728242
130,Aliança da Terra,Aliança da Terra Grupo IV,Santa Rita e arrendamento,"Rodovia GO 050, Km 14, Zona Rural, CEP 75.980-000, Paraúna – GO – Brasil",-50.525807,-17.204747
131,Aliança da Terra,Aliança da Terra Grupo IV,São Francisco,"Rodovia BR 060, Km 422 + à direita 60 Km, Zona Rural, Rio Verde – GO – Brasil",-51.601532,-17.492395
132,Aliança da Terra,Aliança da Terra Grupo IV,São João,"Rodovia 365, Km 351, Zona Rural, Varjão de Minas / MG – Brasil",-46.056212,-18.42833
133,Aliança da Terra,Aliança da Terra Grupo IV,São José,"Rodovia GO 050, Km 227 + 5 Km à esquerda, Zona Rural, Rio Verde – GO – Brasil",-51.078808,-17.206031
134,Aliança da Terra,Aliança da Terra Grupo IV,São Sebastião,"Rodovia GO 174, Km 40 + 1 Km à esquerda + 32 Km, Rio Verde – GO – Brasil",-51.464028,-17.524475
135,Aliança da Terra,Aliança da Terra Grupo IV,São Tomaz,"Rodovia BR 060, Km 407 à esquerda, Zona Rural, Rio Verde – GO – Brasil",-51.115422,-17.819058
136,Aliança da Terra,Aliança da Terra Grupo IV,Segredo,"Rodovia GO 174, Km 39, à esquerda 38 Km, Zona Rural, Rio Verde – GO – Brasil",-47.707017,-18.861594
137,Aliança da Terra,Aliança da Terra Grupo IV,Speggiorini,"Rodovia 365, Km 556 + 7 Km, Estrela do Sul / MG – Brasil",-47.707017,-18.861594
138,Aliança da Terra,Aliança da Terra Grupo IV,Tropical,"Rodovia GO 220, Km 21,5 sentido Montividiu-Caiapônia, Zona Rural, CEP 75.915-000, Montividiu – GO – Brasil",-51.403618,-17.394317
139,Aliança da Terra,Aliança da Terra Grupo IV,Vargem Grande,"Rodovia GO 220, Km 17, Montividiu – GO – Brasil",-51.483038,-17.371451
140,Aliança da Terra,Aliança da Terra Grupo IV,"Vargem Grande, Planalto Verde e Unidas","Rodovia BR 452, Km 01, Zona Rural, Rio Verde – GO – Brasil",-51.58419667,-17.43054833
141,Aliança da Terra,Aliança da Terra Grupo IV,Vitória,"Rodovia GO 174, Km 45 à esquerda (Cana Verde), após o trevo de Montividiu, Zona Rural, Rio Verde – GO – Brasil",-51.475864,-17.43818
142,Grupo Hervalense,Grupo Hervalense,Hervalense,"Rodovia BR-364 KM-650, Zona rural de Diamantino/MT.",-14.18673888888889,-56.62916111111111
143,Grupo Hervalense,Grupo Hervalense,Chapadão,"Rodovia BR-364 KM-695, Zona rural de Diamantino/MT.",-14.131436111111112,-57.0099
144,Grupo Hervalense,Grupo Hervalense,Lagoa do Cervo,"Rodovia BR-364 KM-696, Zona rural de Diamantino/MT.",-14.467827777777778,-56.20327777777778
145,Grupo de Produtores CJ Selecta,Grupo de Produtores CJ Selecta,Agro Verde,"Rod. BR 251, km 943, Fazenda Catingueiro Zona Rural – Unaí/MG",-47.115216,-16.38784
146,Grupo de Produtores CJ Selecta,Grupo de Produtores CJ Selecta,Antagordense,"Rod. MG 190, km 74, Iraí de Minas/MG",-47.580682,-18.995999
147,Grupo de Produtores CJ Selecta,Grupo de Produtores CJ Selecta,Campo Alegre,Araguari/MG,-46.90139,-16.35907
148,Grupo de Produtores CJ Selecta,Grupo de Produtores CJ Selecta,Gira Mundo,Paracatu/MG,-46.5583,-16.9117
149,Grupo de Produtores CJ Selecta,Grupo de Produtores CJ Selecta,Liberdade,"Bonfinópolis de Minas a Unaí km 78 à direita, Bonfinópolis de Minas/MG",-46.504286,-16.33246
150,Grupo de Produtores CJ Selecta,Grupo de Produtores CJ Selecta,Santo Antônio,Canápolis/MG,-49.23964,-18647377.0
151,Grupo de Produtores CJ Selecta,Grupo de Produtores CJ Selecta,São Luiz,Estrela do Sul/MG,-47.706083,-18.862501
152,Grupo de Produtores CJ Selecta,Grupo de Produtores CJ Selecta,São Luiz,Paracatu/MG,-47.2500733,-17.4651716
153,Grupo de Produtores CJ Selecta,Grupo de Produtores CJ Selecta,Sayo,Indianópolis/MG,-47.73718,-47.73718
154,Wellington Pereira Lima - Gebana Goias,Wellington Pereira Lima - Gebana Goias,Wellington Pereira Lima - Gebana Goias,Comunidade Norte - Goianésia / GO,-15.139852777777778,-48.95296388888889
155,Saag Comercial Exportadora ,Saag Comercial Exportadora Ltda - No-GMO,Fazenda Lage,Santana da Vargem – MG,-21.282777777777778,-45.43416666666666
156,Saag Comercial Exportadora ,Saag Comercial Exportadora Ltda - No-GMO,Faz. Saquarema,Carmo da Cachoeira – MG,-21.52791111111111,-45.25128611111111
157,Saag Comercial Exportadora ,Saag Comercial Exportadora Ltda - No-GMO,Faz. Verdes Mares,Guapé – MG,-20.823544444444444,-45.25128611111111
158,Saag Comercial Exportadora ,Saag Comercial Exportadora Ltda - No-GMO,Potreiro,Três Pontas - MG,-21.380283333333335,-45.308474999999994
159,Saag Comercial Exportadora ,Saag Comercial Exportadora Ltda - No-GMO,Agrorossi,Serra Salitre – MG,-19.435080555555555,-46.84454166666667
160,Saag Comercial Exportadora ,Saag Comercial Exportadora Ltda - No-GMO,São Pedro,Ibiá – MG,-19.516130555555556,-46.53453888888889
161,Saag Comercial Exportadora ,Saag Comercial Exportadora Ltda - No-GMO,FAZENDA ANGICOS,Ibiá - MG,-19.937797222222223,-46.53453888888889
162,Saag Comercial Exportadora ,Saag Comercial Exportadora Ltda - No-GMO,Fazenda Novo Horizonte,Medeiros - MG,-21.60213888888889,-46.43993333333333
163,SLC Agrícola,SLC Agrícola S.A.,Fazenda Paiaguás,Diamantino MT,-57.456034,-14.08013
164,SLC Agrícola,SLC Agrícola S.A.,Fazenda Palmares,Barreiras BA,-57.456034,-11.672627
165,SLC Agrícola,SLC Agrícola S.A.,Fazenda Pamplona,Cristalina GO,-47.625268,-16.227882
166,SLC Agrícola,SLC Agrícola S.A.,Fazenda Panorama,Correntina BA,-46.097783,-13.407468
167,SLC Agrícola,SLC Agrícola S.A.,Fazenda Parnaíba,Tasso Fragoso MA,-46.077028,-8.514722
168,SLC Agrícola,SLC Agrícola S.A.,Fazenda Perdizes,Porto dos Gaúchos PZ,-56.260797,-11.641121
169,SLC Agrícola,SLC Agrícola S.A.,Fazenda Pioneira,Querência MT,-52.420525,-12.100987
170,SLC Agrícola,SLC Agrícola S.A.,Fazenda Planalto,Costa Rica MS,-53.204092,-18.211311
171,SLC Agrícola,SLC Agrícola S.A.,Fazenda Planeste,Balsas MA,-46.859487,-8.554206
172,SLC Agrícola,SLC Agrícola S.A.,Fazenda Planorte,Sapezal MT,-58.898933,-13.936938
173,Archer-Daniels-Midland Company (ADM),ADM do Brasil - Fazenda Perdigão,Fazenda Perdigão,"Partindo de São Gabriel do Oeste pelo sentido areado, seguindo a sgo 066, após o rio Coxim seguir por 700 metros. Entrar na estrada a direita e seguir por mais 2 km até chegar a sede da fazenda Bela Miragem, entrar a esquerda e seguir por mais 500 metros, após o córrego Estiva chega a sede da fazenda.",-19.3549,-54.55269444444444
174,Louis Dreyfus Company ,Louis Dreyfus Company – Bom Futuro Agrícola LTDA,Fazenda Serra Azul,"Estrada do Marzagao, Rosário do Oeste/MT",-55646,-14629
175,Louis Dreyfus Company ,Louis Dreyfus Company – Bom Futuro Agrícola LTDA,Fazenda São Miguel,"Fazenda São Miguel, Zona rural, Campo Verde/MT",-54983,-15356
176,Louis Dreyfus Company ,Louis Dreyfus Company – Bom Futuro Agrícola LTDA,Fazenda Itaipu,BR 364 KM-260 Vicinal a direita + 55km,"-13.783623304017105, -56.96180390749444",
177,Louis Dreyfus Company ,Louis Dreyfus Company – Bom Futuro Agrícola LTDA,Fazenda Vovô Ernesto,BR 163 km-665 + 17km a direita sentido Nova Mutum e Lucas do Rio Verde – Nova Mutum/MT,-55898,-13322
178,Associação Clube Amigos da Terra ,Associação Clube Amigos da Terra – CAT Sorriso,Fazenda Alegria,"BR 163, Km 720, Sorriso-MT - Brasil",-12.804975,-55.776375
179,Associação Clube Amigos da Terra ,Associação Clube Amigos da Terra – CAT Sorriso,Fazenda Berrante de Ouro,"MT 487, Km 23 – Gleba Barreiro, Sorriso-MT – Brasil",-12.085497222222223,-55.66502777777777
180,Associação Clube Amigos da Terra ,Associação Clube Amigos da Terra – CAT Sorriso,Fazenda Cella,"MT 242, Km 34 Linha Tropical sentido Ipiranga do Norte, Sorriso- MT – Brasil",-12.502161666666666,-56.4691125
181,Associação Clube Amigos da Terra ,Associação Clube Amigos da Terra – CAT Sorriso,Fazenda Centro da Mata,"MT 242, Km 759, Nova Ubiratã-MT – Brasil",-13.070797222222222,-54.96544166666667
182,Associação Clube Amigos da Terra ,Associação Clube Amigos da Terra – CAT Sorriso,Fazenda Criciúma,"Rodovia MT 242 Km 50, Nova Ubiratã-MT, Brasil",-13.338591666666668,-55.11895277777778
183,Associação Clube Amigos da Terra ,Associação Clube Amigos da Terra – CAT Sorriso,Fazenda Jaborandi,"MT 242, Km 32, Sorriso-MT - Brasil",-12.150277777777777,-55.75083333333333
184,Associação Clube Amigos da Terra ,Associação Clube Amigos da Terra – CAT Sorriso,Fazenda Leopoldina,"BR 163, Km 722 + 53 à esquerda, Sorriso-MT – Brasil",-12.575758333333333,-56.01485
185,Associação Clube Amigos da Terra ,Associação Clube Amigos da Terra – CAT Sorriso,Fazenda Marauense,"BR 163 + 50 Km à direita, Sorriso- MT – Brasil",-13.128222222222222,-55.32194444444445
186,Associação Clube Amigos da Terra ,Associação Clube Amigos da Terra – CAT Sorriso,Fazenda Morena,"MT 235, Km 32 + 10 à direita + 3 à direita, Campo Novo do Parecis-MT – Brasil",-14365,-58.10008333333334
187,Associação Clube Amigos da Terra ,Associação Clube Amigos da Terra – CAT Sorriso,Fazenda Nossa Senhora da Salete,"BR 163, Km 768 + 20 Km, Vera-MT – Brasil",-12.481625,-55.48473888888889
188,Associação Clube Amigos da Terra ,Associação Clube Amigos da Terra – CAT Sorriso,Fazenda Pedra,"BR 163, Km 719, Sorriso-MT - Brasil",-12.815619444444446,-55.764494444444445
189,Associação Clube Amigos da Terra ,Associação Clube Amigos da Terra – CAT Sorriso,Fazenda Pinhal,"Pontal do Verde, Polícia Federal 30 Km, Sorriso-MT – Brasil",-12.940572222222222,-55.58058333333334
190,Associação Clube Amigos da Terra ,Associação Clube Amigos da Terra – CAT Sorriso,Fazenda Pluma,"MT 242, Estrada do Macaco por 20 Km, Sorriso-MT – Brasil",-12.830516666666666,-55.383494444444445
191,Associação Clube Amigos da Terra ,Associação Clube Amigos da Terra – CAT Sorriso,Fazenda Rio Vermelho,Ipiranga Norte MT,-12.076508333333333,-56.403327777777776
192,Associação Clube Amigos da Terra ,Associação Clube Amigos da Terra – CAT Sorriso,Fazenda Rodeio,"BR 242, Km 29, Sorriso-MT – Brasil",-12.723611111111111,-55.532777777777774
193,Associação Clube Amigos da Terra ,Associação Clube Amigos da Terra – CAT Sorriso,Fazenda Santa Ernestina,"BR 163, Km 760 à esquerda, Sorriso- MT – Brasil",-12.479655555555556,-55.696305555555554
194,Associação Clube Amigos da Terra ,Associação Clube Amigos da Terra – CAT Sorriso,Fazenda Santa Maria da Amazônia,"MT 242, Km 20, sentido Ipiranga do Norte, Sorriso-MT – Brasil",-12.371111111111112,-55805
195,Associação Clube Amigos da Terra ,Associação Clube Amigos da Terra – CAT Sorriso,Fazenda Santana,"BR 163, Km 776, 4 Km à direita, Sorriso-MT – Brasil",-9.053305555555557,-65.41750833333334
196,Associação Clube Amigos da Terra ,Associação Clube Amigos da Terra – CAT Sorriso,Fazenda Santo Antônio,"Br 163, Distrito de Primaverinha, Sorriso-MT – Brasil",-12.947222222222223,-55.85277777777778
197,Associação Clube Amigos da Terra ,Associação Clube Amigos da Terra – CAT Sorriso,Fazenda São Felipe,"BR 163, Km 708, Distrito de Primavera-MT – Brasil",-12.788533333333334,-55.78503055555555
198,Associação Clube Amigos da Terra ,Associação Clube Amigos da Terra – CAT Sorriso,Fazenda Videirense,BR 163 Km 729 Sorriso-MT – Brasil,-12.859094444444445,-55.743830555555554
199,SLC Agrícola,SLC Agricola S.A. - Group II Terra Santa,FAZENDA PIRACEMA,Nova Mutum – MT,-13.949582647895298,-55.78755225717667
200,SLC Agrícola,SLC Agricola S.A. - Group II Terra Santa,FAZENDA PIRAPORA,Santa Rita do Trivelato - MT,-14.055526648521356,-55.381183203461205
201,SLC Agrícola,SLC Agricola S.A. - Group II Terra Santa,FAZENDA PAMPEIRA,Campo Novo do Parecis – MT,-14.232758629576953,-57.70757437834914
202,SLC Agrícola,SLC Agricola S.A. - Group II Terra Santa,FAZENDA PROSPERA,Tabaporã – MT,-11.035782090505126,-56.363610883179916
203,Grupo Reinhofer,Grupo Reinhofer,Fazenda Campo Bonito,Reserva do Iguaçu -PR,-25.777681,-51.928203
204,Grupo Reinhofer,Grupo Reinhofer,Fazenda Invernada da Reserva,Reserva do Iguaçu -PR,-25.86978,-51.964361
205,Grupo Reinhofer,Grupo Reinhofer,Fazenda Cupim,Guarapuava- PR,-25.525556,-51.576036
206,Grupo Reinhofer,Grupo Reinhofer,Fazenda Santa Bárbara,Pinhão - PR,-25.660838,-51.794032
207,Grupo Reinhofer,Grupo Reinhofer,Fazenda Santa Isabel,Guarapuava- PR,-25.55284,-51.351425
208,Cerquality Consultoria em Sustentabilidade e Certificação,Cerquality Consultoria em Sustentabilidade e Certificação LTDA - Grupo IV,Fazenda Santana,Riachão das Neves - BA,-11.676155555555555,-45.72196666666667
209,Cerquality Consultoria em Sustentabilidade e Certificação,Cerquality Consultoria em Sustentabilidade e Certificação LTDA - Grupo IV,Fazenda Santa Clara,Bom Jesus - PI,-9.144477777777777,-45.06604722222222
210,Cerquality Consultoria em Sustentabilidade e Certificação,Cerquality Consultoria em Sustentabilidade e Certificação LTDA - Grupo IV,Fazenda Agro Chapada,Paranatinga - MT,-13.55915,-54.31106944444444
211,Cerquality Consultoria em Sustentabilidade e Certificação,Cerquality Consultoria em Sustentabilidade e Certificação LTDA - Grupo IV,Fazenda Pau Brasil,Campos Lindos - TO,-8.068769444444444,-46.562949999999994
212,Cerquality Consultoria em Sustentabilidade e Certificação,Cerquality Consultoria em Sustentabilidade e Certificação LTDA - Grupo IV,Fazenda Santo Antônio Khon,Formosa do Rio Petro – BA,-8.237441666666665,-46.65549722222222
213,Cerquality Consultoria em Sustentabilidade e Certificação,Cerquality Consultoria em Sustentabilidade e Certificação LTDA - Grupo IV,Fazenda Sapucai,Luiz Eduardo Magalhães – BA,-12.250475,-45.86673888888889
214,Cerquality Consultoria em Sustentabilidade e Certificação,Cerquality Consultoria em Sustentabilidade e Certificação LTDA - Grupo IV,Fazenda Sapucai Semear,Riachão das Neves – BA,-11.4926,-45.230472222222225
215,Cerquality Consultoria em Sustentabilidade e Certificação,Cerquality Consultoria em Sustentabilidade e Certificação LTDA - Grupo IV,Fazenda Santo Antônio,Barreiras - BA,-11.71511111111111,-45.97925277777778
216,Fazenda Pau Furado,FAZENDA PAU FURADO,FAZENDA PAU FURADO,"Rua do Kalinoski, km 16 – Teixeira Soares/PR",-25.196944444444444,-50.31522222222222
217,Fundação de Apoio à Pesquisa do Corredor de Exportação Norte “Irineu Alcides Bays,FAPCEN,Fazenda Progresso,Sebastião Leal/PI,-7.456163888888889,-44.16243333333333
218,Fundação de Apoio à Pesquisa do Corredor de Exportação Norte “Irineu Alcides Bays,FAPCEN,Fazenda Tunísia,Uruçuí/PI,-7.408111111111111,-44.31198611111111
219,Fundação de Apoio à Pesquisa do Corredor de Exportação Norte “Irineu Alcides Bays,FAPCEN,Condomínio Boa Esperança,Ribeiro Gonçalves/PI,-8.362975,-45.508427777777776
220,Fundação de Apoio à Pesquisa do Corredor de Exportação Norte “Irineu Alcides Bays,FAPCEN,Fazenda Nova Holanda,Alto Parnaíba/MA,-8.83783888888889,-46.56133888888888
221,Fundação de Apoio à Pesquisa do Corredor de Exportação Norte “Irineu Alcides Bays,FAPCEN,Fazenda Serra Vermelha,Sambaíba/MA,-6.894322222222222,-45.32564722222222
222,Fundação de Apoio à Pesquisa do Corredor de Exportação Norte “Irineu Alcides Bays,FAPCEN,Fazenda Sol Nascente,Balsas/MA,-7.407333333333334,-46.01482222222222
223,Fundação de Apoio à Pesquisa do Corredor de Exportação Norte “Irineu Alcides Bays,FAPCEN,Fazenda Santa Luzia,São Raimundo das Mangabeiras/MA,-6.865788888888889,-45.49799166666667
224,Amaggi,Amaggi Exp Imp Ltda–Grupo Parecis II,Fazenda Barranco Alto (Carolina),Linha 155 Gleba Corumbiara – Corumbiara/RO,-12.9903,-61.1752
225,Amaggi,Amaggi Exp Imp Ltda–Grupo Parecis II,Fazenda Chupinguaia (Nossa Senhora Aparecida e Vitória),"Linha 125, km 08, lote 37, Gleba Corumbiara - Chupinguaia/RO",-12.5894,-60.9568
226,Amaggi,Amaggi Exp Imp Ltda–Grupo Parecis II,Fazenda Curitiba (Cabixi),Rodovia BR 364 km 450 Sentido Cuiabá a Porto Velho a esquerda 100 km – Comodoro/MT,-13.5432,-60.4186
227,Amaggi,Amaggi Exp Imp Ltda–Grupo Parecis II,Fazenda Dom Pedro (Pouso Redondo),"Linha 165, Gleba Corumbiara – Corumbiara/RO",-13.0003,-60.9653
228,Amaggi,Amaggi Exp Imp Ltda–Grupo Parecis II,Fazenda Juliana (Ipê / Cacoal),"Linha 130, Lote 51, Setor 10, Gleba Corumbiara – Chupinguaia/RO",-12.6789,-61.1009
229,Amaggi,Amaggi Exp Imp Ltda–Grupo Parecis II,Fazenda Maringá 3,Gleba Ricardo Franco - Vila Bela da Santissima Trindade/MT,-14.4411,-60.1257
230,Amaggi,Amaggi Exp Imp Ltda–Grupo Parecis II,Fazenda Pérola,Rodovia BR 364 KM 1090 – Sapezal/MT,-13.1358,-58.6772
231,Amaggi,Amaggi Exp Imp Ltda–Grupo Parecis II,Pirapó,"RODOVIA MT 235, KM 137 + 2 KM À DIREITA, S/N, São José do Rio Claro/MT.",-13.85,-57.1879
232,Amaggi,Amaggi Exp Imp Ltda–Grupo Parecis II,Fazenda Retiro (Itaúna e Parecis),"Rodovia BR 174 km 21, saída para Juína – Vilhena/RO",-12.5667,-60.0786
233,Amaggi,Amaggi Exp Imp Ltda–Grupo Parecis II,Fazenda Reunidas do Papagaio,Rodovia MT 235 KM 80 + 17 KM à direita – Sapezal/MT,-13.4259,-58.4228
234,Amaggi,Amaggi Exp Imp Ltda–Grupo Parecis II,Fazenda Santa Ana,Linha 155 Gleba Corumbiara – Corumbiara/RO,-12.9996,-61.23837
235,Amaggi,Amaggi Exp Imp Ltda–Grupo Parecis II,Fazenda Santa Cândida,Rodovia MT 235 km 112 + 30 km esquerda – Sapezal/MT,-13.8006,-58663
236,Amaggi,Amaggi Exp Imp Ltda–Grupo Parecis II,São Miguel SM5,"Estrada Nova Fronteira, S/N, km 125, linha Sul – Sapezal-MT.",-13.5839,-58.7755
237,Amaggi,Amaggi Exp Imp Ltda–Grupo Parecis II,Sete Lagoas,"ROD. BR 364 KM 30 + 30 KM À ESQUERDA. ENTRE O POSTO GIL E DIAMANTINO, S/N, ZONA RURAL Diamantino/MT",- 14.5824,-56.4549
238,Amaggi,Amaggi Exp Imp Ltda–Grupo Parecis II,Fazenda Siriema,"Rodovia MT 235, km 137 entrando a direita percorre-se uma distância de 25 quilômetros – Sapezal/MT",-13.3592,-58.8949
239,Amaggi,Amaggi Exp Imp Ltda–Grupo Parecis II,Fazenda Tupancy,"Rodovia MT 235, Km 100 + 15 Km à direita – Sapezal/MT",-13.4602,-58.5877
240,Amaggi,Amaggi Exp Imp Ltda–Grupo Parecis II,Fazenda Zanella II,Linha Alto Juruena - Campos de Julio/MT,-13.9476,-59.2014
241,Bunge,Bunge Alimentos - Grupo de Productores Bunge,Fazenda União,"Rodovia BR 174, Km 30, Zona Rural, Vilhena/RO.","-12.488199650969268, -60.00359198043838",
242,Bunge,Bunge Alimentos - Grupo de Productores Bunge,Fazenda Brasil,Barra Do Garças/MT,-15.000061111111112,-52.28388888888889
243,Bunge,Bunge Alimentos - Grupo de Productores Bunge,Fazenda Santa Terezinha,Nova Xavantina/MT,-15.000066666666667,-52.52565555555555
244,Bunge,Bunge Alimentos - Grupo de Productores Bunge,Fazenda Querência,Tangará da Serra/MT,-14.487033333333333,-58.35509444444445
245,Bunge,Bunge Alimentos - Grupo de Productores Bunge,Fazenda Roncador,Querência/MT,-12.144444444444444,-52.24888888888889
246,Bunge,Bunge Alimentos - Grupo de Productores Bunge,Fazenda Casa Real,"Rodovia Br 020, Km 70 + 70 Km À Esquerda, São Desidério/BA",,
247,Bunge,Bunge Alimentos - Grupo de Productores Bunge,Fazenda Erechim,"Rod Br 020, Km 113 + 23 Km À Direita, Sentido Lem-Brasília, São Desidério/BA","-13.009090636758199, -46.1754291611641",
248,Bunge,Bunge Alimentos - Grupo de Productores Bunge,Fazenda Cruzeiro do Sul,"Rod Mt 130 + 140 Km Sentido Santiago Do Norte, Paranatinga/MT","-13.445963632631212, -54.28209040686506",
249,Bunge,Bunge Alimentos - Grupo de Productores Bunge,Fazenda Novo Rumo,"Rod Naviraí - Porto Caiua, Km 37, Sede B, Naviraí/MS","-22.996481883841412, -53.86491556093154",
250,Bunge,Bunge Alimentos - Grupo de Productores Bunge,Fazenda São Francisco,"Rodovia Br 020, Km 91, São Desidério/BA","-12.050938793571582, -44.46166953452224",
251,Bunge,Bunge Alimentos - Grupo de Productores Bunge,Fazenda Paraná,Brasnorte/MT,-11.684444444444445,-58.230000000000004
252,Bunge,Bunge Alimentos - Grupo de Productores Bunge,Fazenda Bom Jesus,"Rod Br 364, Km 126, Pedra Preta/MT","-16.800341398781303, -54.10324365989366",
253,Bunge,Bunge Alimentos - Grupo de Productores Bunge,Fazenda Santa Terezinha,Grupo Bom Jesus Agropecuária Ltda,"-13.83737582064132, -56.074725644280534",
254,Bunge,Bunge Alimentos - Grupo de Productores Bunge,Fazenda Santa Maria ,"Fazenda Santa Maria Lote 11 E, Formosa Do Rio Preto/BA","-10.734105388218051, -45.70805048143409",
255,Bunge,Bunge Alimentos - Grupo de Productores Bunge,Fazenda Reata,"Rod Mt 170 - Km 75 - Sucuruina, Sn, Campo Novo Dos Parecis/MT","-12.806630315054907, -58.09559505294213",
256,Bunge,Bunge Alimentos - Grupo de Productores Bunge,Fazenda Beltrão Terra Forte,"Rod Br 163, Km 774, A Esquerda + 20km, Coxim/MS","-18.158946131833186, -54.72201986877579",
257,Bunge,Bunge Alimentos - Grupo de Productores Bunge,Fazenda Santa Maria,São Felix Do Araguaia /MT,-11.170416666666666,-52.818333333333335
258,Bunge,Bunge Alimentos - Grupo de Productores Bunge,Fazenda Santo Expedito,"Rodovia Br 242, Km 45, Luís Eduardo Magalhães/BA","-12.129340930818875, -46.16087419001574",
259,Bunge,Bunge Alimentos - Grupo de Productores Bunge,Fazenda Centúria,"Rod Ba 459, Km 35, Formosa Do Rio Preto/BA","-11.232676662796017, -46.04589526099684",
260,Bunge,Bunge Alimentos - Grupo de Productores Bunge,Fazenda Sagarana,"Rod Br 020, Km 21, Correntina/BA","-13.761221960734343, -46.162732789986194",
261,Bunge,Bunge Alimentos - Grupo de Productores Bunge,Fazenda Timbaúba,"Rod Br 020, Km 175, Luís Eduardo Magalhães/BA","-12.519093845285648, -46.15292044768052",
262,Bunge,Bunge Alimentos - Grupo de Productores Bunge,Fazenda Acalanto,"Rod Br 020, Km 425/110, São Desidério/BA","-12.96254087761786, -45.982461303493444",
263,Bunge,Bunge Alimentos - Grupo de Productores Bunge,Fazenda Ventura,"Rod BR 020, Km 408/94, São Desidério/BA","-13.134094505868115, -46.16578813711325",
264,Bunge,Bunge Alimentos - Grupo de Productores Bunge,Fazenda Querubim,"Rod BR 020, Km 450/135, São Desidério/BA","-12.770573807156188, -46.03155616830487",
265,Fazenda Pirulito,Inacio Carlos Urban e outros - (Fazenda Pirulito),Fazenda Pirulito,"BR 365, Km 324, São Gonçalo do Abaeté - MG, CEP: 38790-000 – Brasil",-  18.302384,-45.888822
266,Fazenda São João Batista ,Fazenda São João Batista ,Fazenda São João Batista,"Rodovia BR 070 Km 372, + 12 Km a Esquerda.",-15404,-55.123111111111115
267,Fazenda Santa Cruz,Fazenda Santa Cruz,Fazenda Santa Cruz,"Rua Luiz Carlos Zani, Nº 365 – A, Jardim Boa Vista – Ibiporã – PR",-21.64082748233687,-45.80302
268,Cataratas do Iguaçu Produtos Orgânicos,Cataratas do Iguaçu Produtos Orgânicos- Ltda – Gebana Brasil (Grupo Filipini),Fazenda Santo Antônio (Rodial),"Fazenda Santo Antônio, Zona Rural Zortea – SC",-27.464325,-51.57991666666667
269,Cataratas do Iguaçu Produtos Orgânicos,Cataratas do Iguaçu Produtos Orgânicos- Ltda – Gebana Brasil (Grupo Filipini),Fazenda Umbu,"Umbu, Zona Rural, Zortea – SC",-27.49376666666667,-51.44497222222222
270,AgroSB,AgroSB Agropecuária S.A.,Santana do Araguaia – PA,Santana do Araguaia – PA,-9.503105555555555,-50.83139722222223
271,Amaggi,Amaggi Commodities EU RED,Água Quente,"Estrada SZ-01, KM 34 - Margem esquerda, Sapezal - Mato Grosso",-58.84351111111111,-13.839122222222223
272,Amaggi,Amaggi Commodities EU RED,Aricá,"Rodovia BR 364, Km 649 à direita, Diamantino – Mato Grosso",-56.900816666666664,-13.883744444444444
273,Amaggi,Amaggi Commodities EU RED,Cereal Ouro,"Rodovia BR 249, Km 95 à direita, Diamantino – Mato Grosso",-56.900555555555556,-13.88361111111111
274,Amaggi,Amaggi Commodities EU RED,Comil I e II,"Estrada Alto Sapezal, margem esquerda Rio Juruena, Km 47, Sapezal - Mato Grosso",-58.79277777777778,-13.892777777777777
275,Amaggi,Amaggi Commodities EU RED,Comil III,"Rodovia MT 235, Km 123, entrando à direita + 8 Km, Campos de Júlio - Mato Grosso",-59.14771666666667,-13.6831
276,Amaggi,Amaggi Commodities EU RED,Don Aro,"Linha MA 26, Complemento MP 72 GL – Machadinho, Zona Rural, Ariquemes – Rondônia",-61.98356944444445,-9.571591666666666
277,Amaggi,Amaggi Commodities EU RED,Estrela,"Rodovia MT-170, Km 50 à direita, Campo Novo do Parecis – Mato Grosso",-57.96344166666667,-13.869941666666668
278,Amaggi,Amaggi Commodities EU RED,Globo,"Rodovia BR-364, Km 1056, Sapezal - Mato Grosso",-58.59330555555556,-12.951833333333333
279,Amaggi,Amaggi Commodities EU RED,Independência,"Rodovia BR 174, Km 13 + 12 Km esquerda, Vilhena – Mato Grosso,",-68.13724722222223,-12.586702777777779
280,Amaggi,Amaggi Commodities EU RED,Itamarati,"Rodovia BR 364 – Entroncamento com MT 358 – Fazenda CIAPAR, Campo Novo do Parecis - Mato Grosso",-57.951686111111115,-14.317305555555555
281,Amaggi,Amaggi Commodities EU RED,Lajeada,"Rodovia MT 388 linha Alto Juruena, Campos de Júlio - Mato Grosso,",-59.201483333333336,-14.106577777777778
282,Amaggi,Amaggi Commodities EU RED,Letícia II,"Rodovia MT 388, Linha Alto Juruena Km 18, Campos de Júlio – Mato Grosso",-59.178288888888886,-13.800016666666668
283,Amaggi,Amaggi Commodities EU RED,Matão,"Rodovia BR 364, Km 1053, Sapezal – Mato Grosso,",-58.57947222222223,-12.898555555555555
284,Amaggi,Amaggi Commodities EU RED,Nossa Senhora Aparecida,"Rodovia BR-364, Km 1093 - Sapezal – Mato Grosso,",-58.73491666666667,-13.200444444444443
285,Amaggi,Amaggi Commodities EU RED,Pirâmide,"Rodovia MT-170, Km 86 + 40 Km à direita, Campo Novo do Parecis – Mato Grosso",-57.78066666666667,-13.300972222222223
286,Amaggi,Amaggi Commodities EU RED,Porta Do Céu,"Rodovia MT-170, Km 90 + 2 Km à esquerda, Campo Novo do Parecis – Mato Grosso,",-57.93633611111111,-13.570827777777778
287,Amaggi,Amaggi Commodities EU RED,Rodeio e Canário,"Rodovia MT 235, Km 110 + 20 Km à direita - Sapezal - Mato Grosso",-58.70388888888889,-13.627500000000001
288,Amaggi,Amaggi Commodities EU RED,Santa Amélia / Curitiba,"Rodovia MT-170, Km 74 + 40 Km à direita, Campo Novo do Parecis – Mato Grosso",-57.58744444444444,-13.816888888888888
289,Amaggi,Amaggi Commodities EU RED,Santa Maria,"Rodovia MT-170, Km 80 + 50 Km à direita, Campo Novo do Parecis – Mato Grosso",-57725,-13.328111111111111
290,Amaggi,Amaggi Commodities EU RED,Santa Maria/ Primavera,"Rodovia MT-170, Km 74 + 40 Km à direita, Campo Novo do Parecis – Mato Grosso",-57.926091666666665,-13.784975
291,Amaggi,Amaggi Commodities EU RED,Santa Rosa Do Paraná I e II,"Rodovia MT 235, Km 137 entrando à direita percorre-se uma distância de 17 Km, Sapezal – Mato Grosso",-58.85777777777778,-13.411111111111111
292,Amaggi,Amaggi Commodities EU RED,São Carlos,"Rodovia MT-170, Km 90 + 2 Km à esquerda, Campo Novo do Parecis – Mato Grosso,",-57.93633611111111,-13.570827777777778
293,Amaggi,Amaggi Commodities EU RED,Saudades,"Rodovia MT 235, Km 165, Campos de Júlio – Mato Grosso",-59.154777777777774,-13.526583333333335
294,Amaggi,Amaggi Commodities EU RED,Três Marcos,"Rodovia BR 364, Km 915 à direita, Campo Novo do Parecis - Mato Grosso",-57.980336111111114,-13.34041388888889
295,Amaggi,Amaggi Commodities EU RED,Tucunaré,"Rodovia MT 235, Km 133, Sapezal – Mato Grosso",-58.90891388888889,-13.478083333333334
296,Louis Dreyfus Company ,Louis Dreyfus Company - LDC Sorriso,Fazenda América,"Rodovia MT 220, Km 135, Tabaporã/MT, Brasil",-11.546308333333334,-56.516375
297,Louis Dreyfus Company ,Louis Dreyfus Company - LDC Sorriso,Fazenda Boa Vista,"Rodovia MT 140, Km 10 + 5 Km à direita, Sorriso/MT, Brasil",-13.152155555555556,-55.37456666666667
298,Louis Dreyfus Company ,Louis Dreyfus Company - LDC Sorriso,Fazenda Rio Branco,"Rodovia MT 010, 35 Km após Ipiranga do Norte sentido ""moegão da Bunge"", Ipiranga do Norte/MT, Brasil",-11.956708333333333,-56.152794444444446
299,Cataratas do Iguaçu Produtos Orgânicos,Cataratas do Iguaçu Produtos Orgânicos Ltda - Gebana Brasil,Carlos Eduardo Silveira,Assentamento Ander Rodolfo Henrique ,-24.920630555555558,-54.03516666666666
300,Cataratas do Iguaçu Produtos Orgânicos,Cataratas do Iguaçu Produtos Orgânicos Ltda - Gebana Brasil,Tatiana Eloiza Scultz,Assentamento Ander Rodolfo Henrique ,-54.05305,-24.946908333333333
301,Cataratas do Iguaçu Produtos Orgânicos,Cataratas do Iguaçu Produtos Orgânicos Ltda - Gebana Brasil,Cleusa Guilherme da Silva,Assentamento Ander Rodolfo Henrique ,-54.03516666666666,-24.920630555555558
302,Cataratas do Iguaçu Produtos Orgânicos,Cataratas do Iguaçu Produtos Orgânicos Ltda - Gebana Brasil,Diomar Zopellaro,Assentamento Ander Rodolfo Henrique ,-24.920283333333334,-54.038780555555554
303,Cataratas do Iguaçu Produtos Orgânicos,Cataratas do Iguaçu Produtos Orgânicos Ltda - Gebana Brasil,Jose Ezildo da Silva,Assentamento Ander Rodolfo Henrique ,-24.93898888888889,-54.058386111111105
304,Cataratas do Iguaçu Produtos Orgânicos,Cataratas do Iguaçu Produtos Orgânicos Ltda - Gebana Brasil,Flavio Luiz Berno,Distrito Floresta – Palotina,-24.220277777777778,-53.71083333333333
305,Cataratas do Iguaçu Produtos Orgânicos,Cataratas do Iguaçu Produtos Orgânicos Ltda - Gebana Brasil,Caroline de Carle Gomes,Linha Alvorada – Palotina,-24.240555555555556,-53.863055555555555
306,Cataratas do Iguaçu Produtos Orgânicos,Cataratas do Iguaçu Produtos Orgânicos Ltda - Gebana Brasil,Darci Dedimar Tomm,Linha Belmonte - Marechal C. Rondon,-24.499722222222225,-54.18083333333333
307,Cataratas do Iguaçu Produtos Orgânicos,Cataratas do Iguaçu Produtos Orgânicos Ltda - Gebana Brasil,Hilario Mattuizzi,Linha Madrugada – Palotina,-25.08861111111111,-53.581388888888895
308,Cataratas do Iguaçu Produtos Orgânicos,Cataratas do Iguaçu Produtos Orgânicos Ltda - Gebana Brasil,Deomiro Bernardo Lehmkuhl,Vila Floresta – Palotina,-24.198888888888888,-53.717222222222226
309,Cataratas do Iguaçu Produtos Orgânicos,Cataratas do Iguaçu Produtos Orgânicos Ltda - Gebana Brasil,Lauri Leo Buzanello,Linha São Clemente – Palotina,-24.264722222222222,-53.89361111111111
310,Cataratas do Iguaçu Produtos Orgânicos,Cataratas do Iguaçu Produtos Orgânicos Ltda - Gebana Brasil,Araides Duarte da Luz,Assentamento Olga Benario - Santa Tereza,-25.08861111111111,-53.581388888888895
311,Cataratas do Iguaçu Produtos Orgânicos,Cataratas do Iguaçu Produtos Orgânicos Ltda - Gebana Brasil,Roberto Pradela,Vila Floresta – Palotina,-24.19361111111111,-53.726111111111116
312,Cataratas do Iguaçu Produtos Orgânicos,Cataratas do Iguaçu Produtos Orgânicos Ltda - Gebana Brasil,Olindo Pierezan,Linha Madrugada – Palotina,-25.08861111111111,-53.581388888888895
313,Fazenda Nossa Senhora Aparecida ,Fazenda Nossa Senhora Aparecida ,Nossa Senhora Aparecida,Agua Fria de Goiás/GO,-14.069166666666666,-47.0675
314,Amaggi,Amaggi Exp. e Imp. Ltda – Grupo Parecis II,Fazenda Barranco Alto,Linha 155 Gleba Corumbiara – Corumbiara/RO,-12.9903,-61.1752
315,Amaggi,Amaggi Exp. e Imp. Ltda – Grupo Parecis II,Fazenda Chupinguaia,"Linha 125, km 08, lote 37, Gleba Corumbiara – Chupinguaia/RO",-12.5894,-60.9568
316,Amaggi,Amaggi Exp. e Imp. Ltda – Grupo Parecis II,Fazenda Curitiba,Rodovia Br 364 km 450 Sentido Cuiaba a Porto Velho a esquerda 100 km – Comodoro/MT,-13.5432,-60.4186
317,Amaggi,Amaggi Exp. e Imp. Ltda – Grupo Parecis II,Fazenda Dom Pedro,"Linha 165, Gleba Corumbiara – Corumbiara/RO",-13.0003,-60.9653
318,Amaggi,Amaggi Exp. e Imp. Ltda – Grupo Parecis II,Fazenda Juliana,"Linha 130, Lote 51, Setor 10, Gleba Corumbiara – Chupinguaia/RO",-12.6789,-61.1009
319,Amaggi,Amaggi Exp. e Imp. Ltda – Grupo Parecis II,Fazenda Maringá 3,Gleba Ricardo Franco - Vila Bela da Santissima Trindade/MT,-14.4411,-60.1257
320,Amaggi,Amaggi Exp. e Imp. Ltda – Grupo Parecis II,Fazenda Pérola,Rodovia BR 364 KM 1090 – Sapezal/MT,-13.1358,-58.6772
321,Amaggi,Amaggi Exp. e Imp. Ltda – Grupo Parecis II,Fazenda Retiro,"Rodovia BR 174 km 21, saída para Juína - Vilhena/RO",-12.5667,-60.0786
322,Amaggi,Amaggi Exp. e Imp. Ltda – Grupo Parecis II,Fazenda Reunidas do Papagaio,Rodovia MT 235 KM 80 + 17 KM à direita – Sapezal/MT,-13.4259,-58.4228
323,Amaggi,Amaggi Exp. e Imp. Ltda – Grupo Parecis II,Fazenda Santa Ana,Linha 155 Gleba Corumbiara – Corumbiara/RO,-12.9996,-61.2383
324,Amaggi,Amaggi Exp. e Imp. Ltda – Grupo Parecis II,Fazenda Santa Cândida,Rodovia MT 235 km 112 + 30 km esquerda – Sapezal/MT,-13.8006,-58663
325,Amaggi,Amaggi Exp. e Imp. Ltda – Grupo Parecis II,Fazenda Siriema,"Rodovia MT 235, km 137 entrando a direita percorre-se uma distância de 25 quilômetros – Sapezal/MT",-13.3592,-58.8949
326,Amaggi,Amaggi Exp. e Imp. Ltda – Grupo Parecis II,Fazenda Tupancy,Rodovia MT 235 km 112 + 30 km esquerda – Sapezal/MT,-13.4602,-58.5877
327,Amaggi,Amaggi Exp. e Imp. Ltda – Grupo Parecis II,Fazenda Zanella II,Linha Alto Juruena - Campos de Julio/MT,-13.9476,-59.2014
328,Bom Jesus Agropecuaria ,Bom Jesus Agropecuaria LTDA - Fazenda Mirandópolis,Fazenda Mirandópolis,Juscimeira/MT,-16.36227777777778,-55.07815
329,Fazenda Lagoa Dourada,Fazenda Lagoa Dourada,Fazenda Lagoa Dourada,Poconé – MT,-16.09476111111111,-56.75564166666667
330,Cresol Estrada de Ferro,CRESOL - Estrada de Ferro,Fazenda Matão,"Rodovia GO-330 Orizona sentido Vianópolis, Km 01 à esquerda + 2 Km à direita. Orizona-GO – Brasil",-17.014830555555555,-48.311724999999996
331,Cresol Estrada de Ferro,CRESOL - Estrada de Ferro,Fazenda Cachoeira,"Orizona sentido povoado da Cachoeira, Km 22 à esquerda. Orizona-GO – Brasil",-16.914902777777776,-48.15588611111111
332,Cresol Estrada de Ferro,CRESOL - Estrada de Ferro,Fazenda Morro Alto,"Rodovia GO-219 Orizona sentido Distrito de Egerineu Teixeira, Km 07 à direita. Orizona-GO",-17.05030277777778,-48.362183333333334
333,Cresol Estrada de Ferro,CRESOL - Estrada de Ferro,Fazenda Areias de Baixo,"Rodovia GO-219 Orizona sentido Montes Claros, após o povoado seguir por mais 2 Km à esquerda. Orizona-GO – Brasil",-17.163361111111108,-48.16511111111111
334,Cresol Estrada de Ferro,CRESOL - Estrada de Ferro,Fazenda Morro Alto,"Rodovia GO-219 Orizona sentido Distrito de Egerineu Teixeira, Km 08 à esquerda. Orizona-GO – Brasil",-17.06881111111111,-48.3667
335,Cresol Estrada de Ferro,CRESOL - Estrada de Ferro,Fazenda Taquaral e Cuiabanos,"Orizona sentido povoado Taquaral, Km 08 à esquerda + 2 Km. Orizona- GO – Brasil",-16.935858333333332,-48.30178055555555
336,Cresol Estrada de Ferro,CRESOL - Estrada de Ferro,Fazenda Taquaral de Cima,"Rodovia GO 330, sentido Orizona/Caraiba, após 20 Km virar à direita e seguir por mais 4 Km. Vianópolis-GO – Brasil",-16.89455,-48.36691666666667
337,Cresol Estrada de Ferro,CRESOL - Estrada de Ferro,Fazenda Engenho Velho,"Estrada Silvânia sentido São Miguel Passa Quatro, Km 15. Silvânia-GO – Brasil",-16.778523,-48.633775
338,Cresol Estrada de Ferro,CRESOL - Estrada de Ferro,Fazenda Rio dos Bois,"Estrada Silvânia sentido São Miguel do Passa Quatro e BR-457, Km 40. Silvânia-GO – Brasil",-16.878407,-48.603229
339,Cresol Estrada de Ferro,CRESOL - Estrada de Ferro,Fazenda Mucambo,"Rodovia GO 437, Km 24 à direita + 6 Km. Silvânia-GO – Brasil",-16.428912,-48.634759
340,Cresol Estrada de Ferro,CRESOL - Estrada de Ferro,Fazenda Rio do Peixe,"Rodovia GO-330, Km 109 à direita + 8 Km. Silvânia-GO – Brasil",-16.890582,-48.43886
341,Cresol Estrada de Ferro,CRESOL - Estrada de Ferro,Fazenda Ponte Alta,"Rodovia GO-330 sentido Leopoldo de Bulhões, trevo sentido a Cruzeiro, Km 12, 2 Km à esquerda. Silvânia-GO – Brasil",-16.701849,-48.798744
342,Cresol Estrada de Ferro,CRESOL - Estrada de Ferro,Fazenda Boa Esperança,"Rodovia GO-010 sentido Luziânia, após Posto Quilombo, 6 Km à direita + 7 Km à direita. Silvânia-GO – Brasil",-16.605829,-48.260294
343,Cresol Estrada de Ferro,CRESOL - Estrada de Ferro,Fazenda Engenho Velho,"Estrada Silvânia sentido São Miguel Passa Quatro, Km 16. Silvânia-GO – Brasil",-16.785815,-48.637973
344,Cresol Estrada de Ferro,CRESOL - Estrada de Ferro,Fazenda Santa Rita,"Rodovia GO 330, Km 212 à esquerda + 14 Km. Silvânia-GO – Brasil",-16.859656,-48.29299
345,Grupo Hervalense,Grupo Hervalense,Fazenda Hervalense,Rodovia BR-364 KM-,-14.1864,-56.6293
346,Grupo Hervalense,Grupo Hervalense,Fazenda Chapadão,Rodovia BR-364 KM-,-14.1311,-57.0097
347,Grupo Hervalense,Grupo Hervalense,Fazenda Lagoa do Cervo,Rodovia BR-364 KM-,-14468,-56.2036
348,GGF Agro,GGF - Agro LTDA,Fazenda Pau Da Onça,"Rodovia Mt 485, Km 100, S/N, Zona Rural",-13.666558333333334,-55.39378611111111
349,Fazenda Modelo,Fazenda Modelo (Eswalter Zanetti e Outros),Fazenda Modelo,Campo Verde - MT,-15.4422970718181,-54.9268314506474
350,O Telhar Agropecuária ,O Telhar Agropecuária LTDA ,Fazenda Nova,Santo Antônio do Leste/MT,-14.857861111111111,-53.492125
351,O Telhar Agropecuária ,O Telhar Agropecuária LTDA,Fazenda Primavera,Primavera do Leste/MT,-15.23903611111111,-54.154088888888886
352,O Telhar Agropecuária ,O Telhar Agropecuária LTDA,Fazenda Independência,Santo Antônio do Leste/MT,-14.8586,-53.49315
353,O Telhar Agropecuária ,O Telhar Agropecuária LTDA,Fazenda Rio Bonito,Nova Ubiratã/MT,-13.524036111111112,-55.07678333333334
354,O Telhar Agropecuária ,O Telhar Agropecuária LTDA,Fazenda Pirapó,São José do Rio Claro/MT,-13.853141666666666,-57.19152777777777
355,O Telhar Agropecuária ,O Telhar Agropecuária LTDA,Fazenda Sete Lagoas,Diamantino/MT,-14.58053611111111,-56.452422222222225
356,Girassol Agrícola,Fazenda Girassol,Fazenda Girassol,Pedra Preta - MT,-16.8375,-54.04222222222222
357,Agropastoril Jatobasso,Fazenda Verde Agropastoril Jatobasso Ltda,Fazenda Verde,Rondonópolis- MT,-16.58431388888889,-54.85796944444444
358,Agrex do Brasil,Agrex do Brasil S.A.,Fazenda Campos Lindos,Loteamento Santa Catarina - Município de Campos Lindos - Tocantins - BR,-8.119722222222222,-46.53055555555555
359,Agrex do Brasil,Agrex do Brasil S.A.,Fazenda Chapada Alta,Loteamento Santa Catarina - Campos Lindos - Tocantins - BR,-8.293055555555556,-46.776944444444446
360,Agrex do Brasil,Agrex do Brasil S.A.,Fazenda Santo Isidoro,Zona Rural - Riachão - Maranhão - BR,-7.420833333333333,-46.36138888888889
361,Agrex do Brasil,Agrex do Brasil S.A.,Fazenda Batavo,"FazendaBat avo Km 245 Gerais de Balsas, Data Caracol Zona Rural - Balsas - Maranhão - BR",-8.564722222222223,-46.67944444444444
362,Agrex do Brasil,Agrex do Brasil S.A.,Fazenda Curitiva,Tasso Fragoso - MA,-7.654166666666667,-46.66416666666667
363,Amaggi,Amaggi Exp Imp Ltda - Grupo Parecis II,Fazenda Barranco Alto,Linha 155 Gleba Corumbiara - Corumbiara/RO,-12.9903,-61.1752
364,Amaggi,Amaggi Exp Imp Ltda - Grupo Parecis II,Fazenda Chupinguaia,"Linha 125, km 08, lote 37, Gleba Corumbiara - Chupinguaia/RO",-12.5894,-60.9568
365,Amaggi,Amaggi Exp Imp Ltda - Grupo Parecis II,Fazenda Curitiba,Rodovia Br 364 km 450 Sentido Cuiaba a Porto Velho a esquerda 100 km - Comodoro/MT,-13.5432,-60.4186
366,Amaggi,Amaggi Exp Imp Ltda - Grupo Parecis II,Fazenda Dom Pedro,"Linha 165, Gleba Corumbiara - Corumbiara/RO",-13.0003,-60.9653
367,Amaggi,Amaggi Exp Imp Ltda - Grupo Parecis II,Fazenda Juliana,"Linha 130, Lote 51, Setor 10, Gleba Corumbiara - Chupinguaia/RO",-12.6789,-61.1009
368,Amaggi,Amaggi Exp Imp Ltda - Grupo Parecis II,Fazenda Maringá 3,Gleba Ricardo Franco - Vila Bela da Santissima Trindade/MT,-14.4411,-60.1257
369,Amaggi,Amaggi Exp Imp Ltda - Grupo Parecis II,Fazenda Pérola,Rodovia BR 364 KM 1090 - Sapezal/MT,-13.1358,-58.6772
370,Amaggi,Amaggi Exp Imp Ltda - Grupo Parecis II,Fazenda Retiro,"Rodovia BR 174 km 21, saída para Juína - Vilhena/RO",-12.5667,-60.0786
371,Amaggi,Amaggi Exp Imp Ltda - Grupo Parecis II,Fazenda Reunidas do Papagaio,Rodovia MT 235 KM 80 + 17 KM à direita - Sapezal/MT,-13.4259,-58.4228
372,Amaggi,Amaggi Exp Imp Ltda - Grupo Parecis II,Fazenda Santa Ana,Linha 155 Gleba Corumbiara - Corumbiara/RO,-12.9996,-61.2383
373,Amaggi,Amaggi Exp Imp Ltda - Grupo Parecis II,Fazenda Santa Cândida,Rodovia MT 235 km 112 + 30 km esquerda - Sapezal/MT,-13.8006,-58663
374,Amaggi,Amaggi Exp Imp Ltda - Grupo Parecis II,Fazenda Siriema,"Rodovia MT 235, km 137 entrando a direita percorre-se uma distância de 25 quilômetros - Sapezal/MT",-13.3592,-58.8949
375,Amaggi,Amaggi Exp Imp Ltda - Grupo Parecis II,Fazenda Tupancy,"Rodovia MT 235, km 100 + 15 km a direita - Sapezal/MT",-13.4602,-58.5877
376,Amaggi,Amaggi Exp Imp Ltda - Grupo Parecis II,Fazenda Zanella II,Linha Alto Juruena - Campos de Julio/MT,-13.9476,-59.2014
377,Produzindo Certo,Produzindo Certo - Grupo Comigo,Boa Vista,Rio Verde/GO,-50.488528,-17.123078
378,Produzindo Certo,Produzindo Certo - Grupo Comigo,Estreito Ponte de Pedra,Montividiu/GO,-51.024631,-17.096734
379,Produzindo Certo,Produzindo Certo - Grupo Comigo,Rio Verdinho da Barra Grande,Rio Verde/GO,-51.421453,-17.587753
380,Produzindo Certo,Produzindo Certo - Grupo Comigo,São Tomaz,Rio Verde/GO,-51.028578,-17.873725
381,Produzindo Certo,Produzindo Certo - Grupo Comigo,São Tomaz e arrendamento,Rio Verde/GO,-51.017607,-17.746797
382,Produzindo Certo,Produzindo Certo - Grupo Comigo,São Tomé e arrendamento,Rio Verde/GO,-51.649725,-17.496719
383,Produzindo Certo,Produzindo Certo - Grupo Comigo,Sol Nascente,Montividiu/GO,-51.2177,-17.204922
384,Saag Comercial Exportadora ,Saag Comercial Exportadora Ltda no-GMO,Fazenda Lage,Santana da Vargem - MG,-21.282777777777778,-45.43416666666666
385,Saag Comercial Exportadora ,Saag Comercial Exportadora Ltda no-GMO,Fazenda Saquarema,Carmo da Cachoeira - MG,-21.52791111111111,-45.25128611111111
386,Saag Comercial Exportadora ,Saag Comercial Exportadora Ltda no-GMO,Agropecuaria Verdes Mares,Guapé - MG,-20.823544444444444,-45.25128611111111
387,Saag Comercial Exportadora ,Saag Comercial Exportadora Ltda no-GMO,Potreiro,Três Pontas - MG,-21.380283333333335,-45.308474999999994
388,Saag Comercial Exportadora ,Saag Comercial Exportadora Ltda no-GMO,Agrorossi,Serra Salitre - MG,-19.435080555555555,-46.84454166666667
389,Saag Comercial Exportadora ,Saag Comercial Exportadora Ltda no-GMO,São Pedro,Ibiá - MG,-19.516130555555556,-46.53453888888889
390,Saag Comercial Exportadora ,Saag Comercial Exportadora Ltda no-GMO,FAZENDA ANGICOS,Ibiá - MG,-19.516130555555556,-46.53453888888889
391,Saag Comercial Exportadora ,Saag Comercial Exportadora Ltda no-GMO,Fazenda Novo Horizonte,Medeiros - MG,-19.937797222222223,-46.43993333333333
392,Bartira Agropecuária,Bartira Gestão Agropecuária,Fazenda Pirapitinga,Canápolis - MG,-49.225519,-18.771695
393,Bartira Agropecuária,Bartira Gestão Agropecuária,Fazenda San Jorge,Costa Rica - MS,-53.168611,-18.716026
394,Bartira Agropecuária,Bartira Gestão Agropecuária,Fazenda San Antônio,Tangará da Serra - MT,-57.948723,-14.354563
395,Bartira Agropecuária,Bartira Gestão Agropecuária,Fazenda Morumbi Agropecuária S.A,Alto da Boa Vista - MT,-51.930628,-11.855835
396,Bartira Agropecuária,Bartira Gestão Agropecuária,Fazenda Bacuri,Riachão - MA,-46.425744,-8.372257
397,Bartira Agropecuária,Bartira Gestão Agropecuária,Fazenda Horizontina Leste,Tasso Fragoso - MA,-45.747764,-7.870731
398,Bartira Agropecuária,Bartira Gestão Agropecuária,Fazenda Horizontina Norte,Campos Lindos - TO,-46.613116,-8.249321
399,Bartira Agropecuária,Bartira Gestão Agropecuária,Flores,Piraquê - TO,-48.22474,-6.539068
400,Associação Clube Amigos da Terra ,Associação Clube Amigos da Terra CAT Sorriso,Fazenda Alegria,"BR 163, Km 720, Sorriso-MT -",-12.804975,-55.776375
401,Associação Clube Amigos da Terra ,Associação Clube Amigos da Terra CAT Sorriso,Fazenda Berrante de Ouro,"MT 487, Km 23 - Gleba Barreiro, Sorriso-MT - Brasil",-12.085497222222223,-55.66502777777777
402,Associação Clube Amigos da Terra ,Associação Clube Amigos da Terra CAT Sorriso,Fazenda Cella,"MT 242, Km 34 Linha Tropical sentido Ipiranga do Norte, Sorriso-MT - Brasil",-12.502161666666666,-56.4691125
403,Associação Clube Amigos da Terra ,Associação Clube Amigos da Terra CAT Sorriso,Fazenda Centro da Mata,"MT 242, Km 759, Nova Ubiratã- MT - Brasil",-13.070797222222222,-54.96544166666667
404,Associação Clube Amigos da Terra ,Associação Clube Amigos da Terra CAT Sorriso,Fazenda Criciúma,"Rodovia MT 242 Km 50, Nova Ubiratã-MT, Brasil",-13.338591666666668,-55.11895277777778
405,Associação Clube Amigos da Terra ,Associação Clube Amigos da Terra CAT Sorriso,Fazenda Jaborandi,"MT 242, Km 32, Sorriso-MT - Brasil",-12.150277777777777,-55.75083333333333
406,Associação Clube Amigos da Terra ,Associação Clube Amigos da Terra CAT Sorriso,Fazenda Leopoldina,"BR 163, Km 722 + 53 à esquerda, Sorriso-MT - Brasil",-12.575758333333333,-56.01485
407,Associação Clube Amigos da Terra ,Associação Clube Amigos da Terra CAT Sorriso,Fazenda Marauense,"BR 163 + 50 Km à direita, Sorriso- MT - Brasil",-13.128222222222222,-55.32194444444445
408,Associação Clube Amigos da Terra ,Associação Clube Amigos da Terra CAT Sorriso,Fazenda Morena,"MT 235, Km 32 + 10 à direita + 3 à direita, Campo Novo do Parecis- MT - Brasil",-14365,-58.10008333333334
409,Associação Clube Amigos da Terra ,Associação Clube Amigos da Terra CAT Sorriso,Fazenda São Marcos,"BR 163, Km 708, Linha Morocó, Sorriso-MT - Brasil",-12.960486111111111,-55.77930555555555
410,Associação Clube Amigos da Terra ,Associação Clube Amigos da Terra CAT Sorriso,Fazenda Nossa Senhora da Salete,"BR 163, Km 768 + 20 Km, Vera-MT - Brasil",-12.481625,-55.48473888888889
411,Associação Clube Amigos da Terra ,Associação Clube Amigos da Terra CAT Sorriso,Fazenda Pedra,"BR 163, Km 719, Sorriso-MT - Brasil",-12.815619444444446,-55.764494444444445
412,Associação Clube Amigos da Terra ,Associação Clube Amigos da Terra CAT Sorriso,Fazenda Pinhal,"Pontal do Verde, Polícia Federal 30 Km, Sorriso-MT - Brasil",-12.940572222222222,-55.58058333333334
413,Associação Clube Amigos da Terra ,Associação Clube Amigos da Terra CAT Sorriso,Fazenda Pluma,"MT 242, Estrada do Macaco por 20 Km, Sorriso-MT - Brasil",-12.830516666666666,-55.383494444444445
414,Associação Clube Amigos da Terra ,Associação Clube Amigos da Terra CAT Sorriso,Fazenda Rodeio,"BR 242, Km 29, Sorriso-MT - Brasil",-12.723611111111111,-55.532777777777774
415,Associação Clube Amigos da Terra ,Associação Clube Amigos da Terra CAT Sorriso,Fazenda Santa Ernestina,"BR 163, Km 760 à esquerda, Sorriso-MT - Brasil",-12.479655555555556,-55.696305555555554
416,Associação Clube Amigos da Terra ,Associação Clube Amigos da Terra CAT Sorriso,Fazenda Santa Maria da Amazônia,"MT 242, Km 20, sentido Ipiranga do Norte, Sorriso-MT - Brasil",-12.371111111111112,-55805
417,Associação Clube Amigos da Terra ,Associação Clube Amigos da Terra CAT Sorriso,Fazenda Santana,"BR 163, Km 776, 4 Km à direita, Sorriso-MT - Brasil",-9.053305555555557,-65.41750833333334
418,Associação Clube Amigos da Terra ,Associação Clube Amigos da Terra CAT Sorriso,Fazenda Santo Antônio,"Br 163, Distrito de Primaverinha, Sorriso-MT - Brasil",-12.947222222222223,-55.85277777777778
419,Associação Clube Amigos da Terra ,Associação Clube Amigos da Terra CAT Sorriso,Fazenda São Felipe,"BR 163, Km 708, Distrito de Primavera-MT - Brasil",-12.788533333333334,-55.78503055555555
420,Associação Clube Amigos da Terra ,Associação Clube Amigos da Terra CAT Sorriso,Fazenda Gamada,"MT 320 a 22 KM trevo de Nova Canaã lado direito, Nova Canaã- MT - Brasil",-10.422672222222221,-55.67885833333333
421,Associação Clube Amigos da Terra ,Associação Clube Amigos da Terra CAT Sorriso,Fazenda Videirense,BR 163 Km 729,-12.859094444444445,-55.743830555555554
422,Produzindo Certo,Produzindo Certo-Grupo Castrolanda,Agropecuária Romi,"Agropecuária Romi, Estrada Capão Alto, Km 6, Castro/PR",-49.902293,-24.739889
423,Agricola Xingu,Agricola Xingu S.A,Fazenda Tabuleiro I,São Desiderio - BA,-13.339561111111111,-45.79119722222222
424,Agricola Xingu,Agricola Xingu S.A,Fazenda Tabuleiro II,São Desiderio - BA,-13.258611111111112,-45.726111111111116
425,Agricola Xingu,Agricola Xingu S.A,Fazenda Tabuleiro III,São Desiderio - BA,-13.190527777777778,-45.78301666666667
426,Produzindo Certo,Produzindo Certo-Grupo Castrolanda,Bom Sucesso,"Fazenda Bom Sucesso, Bairro Bom Sucesso, Itararé/SP",-49.182219,-24.154856
427,SLC Agrícola,SLC Agrícola,Fazenda Planalto,Costa Rica - MS,-53.204092,-18.211311
428,SLC Agrícola,SLC Agrícola,Fazenda Pamplona,Cristalina - GO,-47.625268,-16.227882
429,SLC Agrícola,SLC Agrícola,Fazenda Panorama,Correntina - BA,-46.097783,-13.407468
430,SLC Agrícola,SLC Agrícola,Fazenda Parnaíba,Tasso Fragoso - MA,-46.077028,-8.514722
431,SLC Agrícola,SLC Agrícola,Fazenda Planeste,Balsas - MA,-46.859487,-8.554206
432,SLC Agrícola,SLC Agrícola,Fazenda Paiaguás,Diamantino  - MT,-57.456034,-14.08013
433,SLC Agrícola,SLC Agrícola,Fazenda Planorte,Sapezal - MT,-58.898933,-13.936938
434,Bartira Agropecuária,Fazendas Bartira ,Fazenda Pirapitinga,Canápolis - MG,-49.225519,- 18.771695
435,Bartira Agropecuária,Fazendas Bartira,Fazenda San Jorge,Costa Rica - MS,-53.168611,- 18.716026
436,Bartira Agropecuária,Fazendas Bartira ,Fazenda San Antônio,Tangará da Serra - MT,-57.948723,-14.354563
437,Bartira Agropecuária,Fazendas Bartira,Fazenda Morumbi Agropecuária S.A,Alto da Boa Vista - MT,-51.930628,-11.855835
438,Bartira Agropecuária,Fazendas Bartira - non-GMO,Fazenda San Antônio,Tangará da Serra - MT,-57.948723,-14.354563
439,Aliança da Terra,Aliança da Terra - Grupo IV,Água Santa,"Rodovia BR 452, Km 258, CEP: 38170- 000, Caixa Postal 21, Perdizes - MG - Brasil",-47.364068,-47.364068
440,Aliança da Terra,Aliança da Terra - Grupo IV,Bandeirantes,"Rodovia GO 220, Km 35, esquerda 20 Km, Zona Rural, CEP: 75.915-000, Montividiu - GO - Brasil",-51.367197,-17.42317
441,Aliança da Terra,Aliança da Terra - Grupo IV,Boa Esperança,"Rodovia GO 174, Km 39, + 20 Km à direita, Rio Verde - GO - Brasil",-50.98599,-17.373805
442,Aliança da Terra,Aliança da Terra - Grupo IV,Boa Vista,"Rodovia GO 405, CEP: 75.980-000, Paraúna - GO - Brasil",-51.461452,-17.354913
443,Aliança da Terra,Aliança da Terra - Grupo IV,Bom Jardim e Primavera,"Rodovia GO 220, Km 27, Caixa Postal 515, CEP: 75.901-970, Montividiu - GO - Brasil",-51.461452,-17.354913
444,Aliança da Terra,Aliança da Terra - Grupo IV,Bom Jardim (Dorothea),"Rodovia Montividiu-Caiapônia, Km 15 à direita, CEP: 75.915-000, Zona Rural, Montividiu - GO - Brasil",-51.32331,-17.286756
445,Aliança da Terra,Aliança da Terra - Grupo IV,Bom Jardim (Marcelo),"Rodovia GO 220, Km 15 à direita, CEP: 75.980-000, Zona Rural, Montividiu - GO - Brasil",-51.329665,-17.281813
446,Aliança da Terra,Aliança da Terra - Grupo IV,Brasilanda,"Rodovia GO 174, Km 40 + 1 Km à esquerda, Rio Verde - GO - Brasil",-51.275933,-17.492133
447,Aliança da Terra,Aliança da Terra - Grupo IV,Cachoeirinha,"Rodovia GO 220, Km 60, CEP: 75.850- 000, Zona Rural, Caiapônia - GO - Brasil",-51.645517,-17.238443
448,Aliança da Terra,Aliança da Terra - Grupo IV,Cana Verde,"Rodovia GO 174, Km 90, CEP: 75.850- 000, Zona Rural, Rio Verde - GO - Brasil",-51.118167,-17.069333
449,Aliança da Terra,Aliança da Terra - Grupo IV,DME,"Rodovia MG 410, Km 51, Zona Rural, Presidente Olegário - MG - Brasil",-46.426303,-18.072217
450,Aliança da Terra,Aliança da Terra - Grupo IV,Gameleira,"Rodovia MG 410, Km 51, Presidente Olegário - MG - Brasil",-46.35671,-17.836257
451,Aliança da Terra,Aliança da Terra - Grupo IV,Mata do Lobo,"Rodovia BR 452, Km 41 à direita, Rio Verde - GO - Brasil",-50.736345,-18.121277
452,Aliança da Terra,Aliança da Terra - Grupo IV,Mauá,"Rodovia GO 174, Km 60 - Montividiu - GO - Brasil",-51.344025,-17.235353
453,Aliança da Terra,Aliança da Terra - Grupo IV,Monte Alegre,"Avenida José Walter, n? 845, Setor Morada do Sol, CEP:75.908-780, Rio Verde - GO - Brasil",-51.42451,-17.49837
454,Aliança da Terra,Aliança da Terra - Grupo IV,Monte Alegre Pindaíbas,"Rodovia GO 333, Km 45, Rio Verde - GO - Brasil",-50.821303,-17.402428
455,Aliança da Terra,Aliança da Terra - Grupo IV,Pai Manoel,"Rodovia BR 060, Km 425, Rio Verde - GO - Brasil",-51.28907,-17.739327
456,Aliança da Terra,Aliança da Terra - Grupo IV,Paraíso do Rio Preto,"Rodovia BR 452, Km 41, Zona Rural, Rio Verde - GO - Brasil",-50.792807,-18.066978
457,Aliança da Terra,Aliança da Terra - Grupo IV,Paraíso Rio Preto e Renala,"Rodovia BR 452, Km 01, Zona Rural, Rio Verde - GO - Brasil",-50.787721,-18083
458,Aliança da Terra,Aliança da Terra - Grupo IV,Santa Fé,"Zona Rural, Uberlândia - MG - Brasil",-48.03494,-19.222047
459,Aliança da Terra,Aliança da Terra - Grupo IV,Santa Mônica e Felicidade,"Rodovia BR 060, Km 373 + 3 Km à esquerda, CEP: 75.900-000, Zona Rural, Rio Verde - GO - Brasil",-50.812352,-17.728242
460,Aliança da Terra,Aliança da Terra - Grupo IV,Santa Rita e arrendamento,"Rodovia GO 050, Km 14, Zona Rural, CEP 75.980-000, Paraúna - GO - Brasil",-50.525807,-17.204747
461,Aliança da Terra,Aliança da Terra - Grupo IV,São Francisco,"Rodovia BR 060, Km 422 + à direita 60 Km, Zona Rural, Rio Verde - GO - Brasil",-51.601532,-17.492395
462,Aliança da Terra,Aliança da Terra - Grupo IV,São João,"Rodovia 365, Km 351, Zona Rural, Varjão de Minas / MG - Brasil",-46.056212,-18.42833
463,Aliança da Terra,Aliança da Terra - Grupo IV,São José,"Rodovia GO 050, Km 227 + 5 Km à esquerda, Zona Rural, Rio Verde - GO - Brasil",-51.078808,-17.206031
464,Aliança da Terra,Aliança da Terra - Grupo IV,São Sebastião,"Rodovia GO 174, Km 40 + 1 Km à esquerda + 32 Km, Rio Verde - GO - Brasil",-51.464028,-17.524475
465,Aliança da Terra,Aliança da Terra - Grupo IV,São Tomaz,"Rodovia BR 060, Km 407 à esquerda, Zona Rural, Rio Verde - GO - Brasil",-51.115422,-17.819058
466,Aliança da Terra,Aliança da Terra - Grupo IV,Segredo,"Rodovia GO 174, Km 39, à esquerda 38 Km, Zona Rural, Rio Verde - GO - Brasil",-47.707017,-18.861594
467,Aliança da Terra,Aliança da Terra - Grupo IV,Speggiorini,"Rodovia 365, Km 556 + 7 Km, Estrela do Sul / MG - Brasil",-47.707017,-18.861594
468,Aliança da Terra,Aliança da Terra - Grupo IV,Torre,"Rodovia GO 158, Km 72 - Jataí - GO - Brasil",-51.881125,-17.353563
469,Aliança da Terra,Aliança da Terra - Grupo IV,Tropical,"Rodovia GO 220, Km 21,5 sentido Montividiu-Caiapônia, Zona Rural, CEP 75.915-000, Montividiu - GO - Brasil",-51.403618,-17.394317
470,Aliança da Terra,Aliança da Terra - Grupo IV,Vargem Grande,"Rodovia GO 220, Km 17, Montividiu - GO - Brasil",-51.483038,-17.371451
471,Aliança da Terra,Aliança da Terra - Grupo IV,"Vargem Grande, Planalto Verde e Unidas","Rodovia BR 452, Km 01, Zona Rural, Rio Verde - GO - Brasil",-51.58419667,-17.43054833
472,Aliança da Terra,Aliança da Terra - Grupo IV,Vitória,"Rodovia GO 174, Km 45 à esquerda (Cana Verde), após o trevo de Montividiu, Zona Rural, Rio Verde - GO - Brasil",-51.475864,-17.43818
473,Fazenda Agrícola Dourado,Fazenda Agrícola Dourado S.A.,Fazenda Agrícola Dourado,"Estrada NL 10, s/n km 5. Zona Rural. Nortelândia MT",-14.372530555555556,-56.76291666666667
474,Amaggi,Amaggi Commodities EU RED,Don Aro,"Linha MA 26, Complemento MP 72 GL - Machadinho, Zona Rural, Ariquemes - Rondônia",-61.98356944444445,-9.571591666666666
475,Amaggi,Amaggi Commodities EU RED,Flexa De Ouro I,"Rodovia MT-170, Km 200 + 2 Km à esquerda, Brasnorte - Mato Grosso",-58.09955555555556,-12.554166666666667
476,Amaggi,Amaggi Commodities EU RED,Flexa De Ouro II,"Rodovia Estadual MT 220 Km 70, Juara- Mato Grosso",-57.89213888888889,-11.544027777777778
477,Amaggi,Amaggi Commodities EU RED,Saudades / Paixão / Masutti,"Rodovia MT 235, Km 165, Campos de Júlio - Mato Grosso",-59.154777777777774,-13.526583333333335
478,Amaggi,Amaggi Commodities EU RED,JK,"Rodovia BR 174, Km 501 - sentido Vilhena, Comodoro - Mato Grosso",-59.90998888888889,-13.037975
479,Amaggi,Amaggi Commodities EU RED,Letícia II,"Rodovia MT 388, Gleba Formiga Km 15, Campos de Júlio - Mato Grosso,",-59.178288888888886,-13.800016666666668
480,Amaggi,Amaggi Commodities EU RED,Lajeada,"Rodovia MT 388 linha Alto Juruena, Campos de Júlio - Mato Grosso,",-59.201483333333336,-14.106577777777778
481,Amaggi,Amaggi Commodities EU RED,Grupo Comil III,"Rodovia MT 235, Km 123, entrando à direita + 8 Km, Campos de Júlio - Mato Grosso,",-59.14771666666667,-3.6831
482,Amaggi,Amaggi Commodities EU RED,Fortaleza Do Guaporé NL,"Gleba Ricardo Franco, Km 70, Nova Lacerda - Mato Grosso",-60.027499999999996,-14.395555555555555
483,Amaggi,Amaggi Commodities EU RED,Piramide,"Rodovia MT-170, Km 86 + 40 Km à direita, Campo Novo do Parecis - Mato Grosso",-57.78066666666667,-13.300972222222223
484,Amaggi,Amaggi Commodities EU RED,São Carlos,"Rodovia MT-170, Km 90 + 2 Km à esquerda, Campo Novo do Parecis - Mato Grosso",-57.93633611111111,-13.570827777777778
485,Amaggi,Amaggi Commodities EU RED,Porta Do Céu,"Rodovia MT-170, Km 90 + 2 Km à esquerda, Campo Novo do Parecis - Mato Grosso",-57.93633611111111,-13.570827777777778
486,Amaggi,Amaggi Commodities EU RED,Santa Maria,"Rodovia MT-170, Km 74 + 40 Km à direita, Campo Novo do Parecis - Mato Grosso",-57.926091666666665,-13.784975
487,Amaggi,Amaggi Commodities EU RED,Estrela,"Rodovia MT-170, Km 50 à direita, Campo Novo do Parecis - Mato Grosso",-57.96344166666667,-13.869941666666668
488,Amaggi,Amaggi Commodities EU RED,Três Marcos,"Rodovia BR 364, Km 920, margem à direita, Campo Novo do Parecis - Mato Grosso,",-57.980336111111114,-13.34041388888889
489,Amaggi,Amaggi Commodities EU RED,Santa Maria,"Rodovia MT-170, Km 80 + 50 Km à direita, Campo Novo do Parecis - Mato Grosso",-57725,-13.328111111111111
490,Amaggi,Amaggi Commodities EU RED,Santa Amélia / Curitiba,"Rodovia MT-170, Km 74 + 40 Km à direita, Campo Novo do Parecis - Mato Grosso",-57.58744444444444,-13.816888888888888
491,Amaggi,Amaggi Commodities EU RED,Tucano I e II / Ponte de Pedra,"Rodovia MT 170, Km 75 + 18 à esquerda, Linha Sucuruína, Campo Novo do Parecis - Mato Grosso,",-57.555527777777776,-13.584427777777778
492,Amaggi,Amaggi Commodities EU RED,Cereal Ouro,"Rodovia BR 249 + 35 Km à direita, Diamantino - Mato Grosso",-56.900555555555556,-13.88361111111111
493,Amaggi,Amaggi Commodities EU RED,Aricá,"Rodovia BR 364, Km 226 à direita, Diamantino - Mato Grosso",-56.900816666666664,-13.883744444444444
494,Amaggi,Amaggi Commodities EU RED,Matão,"Rodovia BR 364, Km 1053, Sapezal - Mato Grosso",-58.57947222222223,-12.898555555555555
495,Amaggi,Amaggi Commodities EU RED,Nossa Senhora Aparecida,"Rodovia BR-364, Km 1093 - Sapezal - Mato Grosso",-58.73491666666667,-13.200444444444443
496,Amaggi,Amaggi Commodities EU RED,Santa Rosa Do Paraná I e II,"Rodovia MT 235, Km 137 entrando à direita percorre-se uma distância de 17 Km, Sapezal - Mato Grosso",-58.85777777777778,-13.411111111111111
497,Amaggi,Amaggi Commodities EU RED,Rodeio e Canário,"Rodovia MT 235, Km 110 + 20 Km à direita - Sapezal - Mato Grosso",-58.70388888888889,-13.627500000000001
498,Amaggi,Amaggi Commodities EU RED,Paraíso ,"Rodovia MT 235, Km 80, + 23 Km à direita, Sapezal - Mato Grosso",-58.53006388888889,-13.3939
499,Amaggi,Amaggi Commodities EU RED,Grupo Comil I e II,"Estrada Alto Sapezal, margem esquerda Rio Juruena, Km 47, Sapezal - Mato Grosso",-58.79277777777778,-13.892777777777777
500,Amaggi,Amaggi Commodities EU RED,Globo,"Rodovia BR-364, Km 1056, Sapezal - Mato Grosso",-58.59330555555556,-12.951833333333333
501,Amaggi,Amaggi Commodities EU RED,Independência,"Rodovia BR 174, Km 13 + 12 Km esquerda, Vilhena - Mato Grosso,",-68.13724722222223,-12.586702777777779
502,Fundação de Apoio à Pesquisa do Corredor de Exportação Norte “Irineu Alcides Bays,FAPCEN I,Fazenda Progresso,Sebastião Leal/PI,-7.456163888888889,-44.16243333333333
503,Fundação de Apoio à Pesquisa do Corredor de Exportação Norte “Irineu Alcides Bays,FAPCEN I,Fazenda Tunísia,Uruçuí/PI,-7.408111111111111,-44.31198611111111
504,Fundação de Apoio à Pesquisa do Corredor de Exportação Norte “Irineu Alcides Bays,FAPCEN I,Condomínio Boa Esperança,Ribeiro Gonçalves/PI,-8.362975,-45.508427777777776
505,Fundação de Apoio à Pesquisa do Corredor de Exportação Norte “Irineu Alcides Bays,FAPCEN I,Fazenda Nova Holanda,Alto Parnaíba/MA,-8.83783888888889,-46.56133888888888
506,Fundação de Apoio à Pesquisa do Corredor de Exportação Norte “Irineu Alcides Bays,FAPCEN I,Fazenda Serra Vermelha,Sambaíba/MA,-6.894322222222222,-45.32564722222222
507,Fundação de Apoio à Pesquisa do Corredor de Exportação Norte “Irineu Alcides Bays,FAPCEN I,Fazenda Sol Nascente,Balsas/MA,-7.407333333333334,-46.01482222222222
508,Fundação de Apoio à Pesquisa do Corredor de Exportação Norte “Irineu Alcides Bays,FAPCEN I,Fazenda Santa Luzia,São Raimundo das Mangabeiras/MA,-6.865788888888889,-45.49799166666667
509,Fundação de Apoio à Pesquisa do Corredor de Exportação Norte “Irineu Alcides Bays,FAPCEN III,Carolina do Norte,T. Fragoso/MA,-9.23286388888889,-46.53489166666667
510,Fundação de Apoio à Pesquisa do Corredor de Exportação Norte “Irineu Alcides Bays,FAPCEN III,Rio Verde,Loreto/MA,-7.854863888888889,-45.79848055555556
511,Fundação de Apoio à Pesquisa do Corredor de Exportação Norte “Irineu Alcides Bays,FAPCEN III,Granja Ceres,S. R. das Mangabeiras/MA,-7.2877777777777775,-46.21008055555556
512,Fundação de Apoio à Pesquisa do Corredor de Exportação Norte “Irineu Alcides Bays,FAPCEN III,Itapuá,A.Parnaíba/MA,-9.056405555555557,-46.34009166666667
513,Fundação de Apoio à Pesquisa do Corredor de Exportação Norte “Irineu Alcides Bays,FAPCEN III,Ouro Branco,Paracatu/MG,-17.216733333333334,-47.0485
514,Fundação de Apoio à Pesquisa do Corredor de Exportação Norte “Irineu Alcides Bays,FAPCEN III,Rainha da Serra,Uruçuí/PI,-7.929830555555556,-44.408975
515,Cataratas do Iguaçu Produtos Orgânicos,Cataratas do Iguaçu Produtos Orgânicos Ltda - Gebana Brasil,Carlos Eduardo Silveira,Assentamento Ander Rodolfo Henrique - Diamante de Oeste,-24.920630555555558,-54.05305
516,Cataratas do Iguaçu Produtos Orgânicos,Cataratas do Iguaçu Produtos Orgânicos Ltda - Gebana Brasil,Tatiana Eloiza Scultz,Assentamento Ander Rodolfo Henrique - Diamante de Oeste,-54.05305,-24.946908333333333
517,Cataratas do Iguaçu Produtos Orgânicos,Cataratas do Iguaçu Produtos Orgânicos Ltda - Gebana Brasil,Cleusa Guilherme da Silva,Assentamento Ander Rodolfo Henrique - Diamante de Oeste,-54.03516666666666,-24.920630555555558
518,Cataratas do Iguaçu Produtos Orgânicos,Cataratas do Iguaçu Produtos Orgânicos Ltda - Gebana Brasil,Diomar Zopellaro,Assentamento Ander Rodolfo Henrique - Diamante de Oeste,-24.920283333333334,-54.038780555555554
519,Cataratas do Iguaçu Produtos Orgânicos,Cataratas do Iguaçu Produtos Orgânicos Ltda - Gebana Brasil,Jose Ezildo da Silva,Assentamento Ander Rodolfo Henrique - Diamante de Oeste,-24.93898888888889,-54.058386111111105
520,Cataratas do Iguaçu Produtos Orgânicos,Cataratas do Iguaçu Produtos Orgânicos Ltda - Gebana Brasil,Flavio Luiz Berno,Distrito Floresta - Palotina,-24.220277777777778,-53.71083333333333
521,Cataratas do Iguaçu Produtos Orgânicos,Cataratas do Iguaçu Produtos Orgânicos Ltda - Gebana Brasil,Caroline de Carle Gomes,Linha Alvorada - Palotina,-24.240555555555556,-53.863055555555555
522,Cataratas do Iguaçu Produtos Orgânicos,Cataratas do Iguaçu Produtos Orgânicos Ltda - Gebana Brasil,Darci Dedimar Tomm,Linha Belmonte - Marechal C. Rondon,-24.499722222222225,-54.18083333333333
523,Cataratas do Iguaçu Produtos Orgânicos,Cataratas do Iguaçu Produtos Orgânicos Ltda - Gebana Brasil,Hilario Mattuizzi,Linha Madrugada - Palotina,-25.08861111111111,-53.581388888888895
524,Cataratas do Iguaçu Produtos Orgânicos,Cataratas do Iguaçu Produtos Orgânicos Ltda - Gebana Brasil,Deomiro Bernardo Lehmkuhl,Vila Floresta - Palotina,-24.198888888888888,-53.717222222222226
525,Cataratas do Iguaçu Produtos Orgânicos,Cataratas do Iguaçu Produtos Orgânicos Ltda - Gebana Brasil,Lauri Leo Buzanello,Linha São Clemente - Palotina,-24.264722222222222,-53.89361111111111
526,Cataratas do Iguaçu Produtos Orgânicos,Cataratas do Iguaçu Produtos Orgânicos Ltda - Gebana Brasil,Araides Duarte da Luz,Assentamento Olga Benario - Santa Tereza do Oeste,-25.08861111111111,-53.581388888888895
527,Cataratas do Iguaçu Produtos Orgânicos,Cataratas do Iguaçu Produtos Orgânicos Ltda - Gebana Brasil,Roberto Pradela,Vila Floresta - Palotina,-24.19361111111111,-53.726111111111116
528,Cataratas do Iguaçu Produtos Orgânicos,Cataratas do Iguaçu Produtos Orgânicos Ltda - Gebana Brasil,Pierezan,Linha Madrugada - Palotina,-25.08861111111111,-53.581388888888895
529,AgroSB,AgroSB Agropecuária S.A.,Fazenda Nova Vida,Santana do Araguaia - PA,-9.503105555555555,-50.83139722222223
530,Agrex do Brasil,Agrex do Brasil S.A.,Fazenda Campos Lindos,Loteamento Santa Catarina - Município de Campos Lindos - Tocantins - BR,-8.119722222222222,-46.53055555555555
531,Agrex do Brasil,Agrex do Brasil S.A.,Fazenda Chapada Alta,Loteamento Santa Catarina - Campos Lindos - Tocantins - BR,-8.293055555555556,-46.776944444444446
532,Agrex do Brasil,Agrex do Brasil S.A.,Fazenda Santo Isidoro,Zona Rural - Riachão - Maranhão - BR,-7.420833333333333,-46.36138888888889
533,Agrex do Brasil,Agrex do Brasil S.A.,Fazenda Batavo,"FazendaBat avo Km 245 Gerais de Balsas, Data Caracol Zona Rural - Balsas - Maranhão - BR",-8.564722222222223,-46.67944444444444
534,Agrex do Brasil,Agrex do Brasil S.A.,Fazenda Curitiva,Tasso Fragoso - MA,-7.654166666666667,-46.66416666666667
535,Cerquality Consultoria em Sustentabilidade e Certificação,Cerquality Consultoria em Sustentabilidade e Certificação LTDA Grupo I,FAZENDA AGRO BOA VISTA,BALSAS - MA,- 8.597150,- 46.639218
536,Cerquality Consultoria em Sustentabilidade e Certificação,Cerquality Consultoria em Sustentabilidade e Certificação LTDA Grupo I,FAZENDA CERTEZA,BALSAS - MA,- 8.118607,- 45.870153
537,Cerquality Consultoria em Sustentabilidade e Certificação,Cerquality Consultoria em Sustentabilidade e Certificação LTDA Grupo I,FAZENDA CHAPADÃO,TASSO FRAGOSO -  MA,- 8.651808,- 45.945183
538,Cerquality Consultoria em Sustentabilidade e Certificação,Cerquality Consultoria em Sustentabilidade e Certificação LTDA Grupo I,FAZENDA SAPUCAÍ,TASSO FRAGOSO -  MA,- 8.297231,- 45.769278
539,Cerquality Consultoria em Sustentabilidade e Certificação,Cerquality Consultoria em Sustentabilidade e Certificação LTDA Grupo I,FAZENDA GUAÍRA,FORTALEZA DOS NOGUEIRAS - MA,- 7.088961,- 45.945405
540,Cerquality Consultoria em Sustentabilidade e Certificação,Cerquality Consultoria em Sustentabilidade e Certificação LTDA Grupo I,FAZENDA CAIUÁ,BALSAS - MA,- 8.430479,- 46.618932
541,Cerquality Consultoria em Sustentabilidade e Certificação,Cerquality Consultoria em Sustentabilidade e Certificação LTDA Grupo I,FAZENDA SEIS IRMÃOS,RIACHÃO - MA,- 7.447427,-46.3264
542,Cerquality Consultoria em Sustentabilidade e Certificação,Cerquality Consultoria em Sustentabilidade e Certificação LTDA Grupo I,FAZENDA JAPURÁ,SANTA FILOMENA -  PI,- 8.721907,- 45.570364
543,Cerquality Consultoria em Sustentabilidade e Certificação,Cerquality Consultoria em Sustentabilidade e Certificação LTDA Grupo I,FAZENDA ALVORADA,SÃO DESIDÉRIO - BA,- 12.423922,- 46.250622
544,Cerquality Consultoria em Sustentabilidade e Certificação,Cerquality Consultoria em Sustentabilidade e Certificação LTDA Grupo I,FAZENDA TAKAHASHI,BALSAS - MA,- 8.678837,- 46.665834
545,Cerquality Consultoria em Sustentabilidade e Certificação,Cerquality Consultoria em Sustentabilidade e Certificação LTDA Grupo I,FAZENDA LAGOA ENCANTADA,PRIMAVERA DO LESTE - MT,- 15.266706,-54.263947
546,Cerquality Consultoria em Sustentabilidade e Certificação,Cerquality Consultoria em Sustentabilidade e Certificação LTDA Grupo I,FAZENDA ESCONDIDO,BALSAS - MA,- 7.963056,- 45.924650
547,Cerquality Consultoria em Sustentabilidade e Certificação,Cerquality Consultoria em Sustentabilidade e Certificação LTDA Grupo I,FAZENDA PIRACICABA,Tasso Fragoso - MA,- 7.965008,- 45.752163
548,Cerquality Consultoria em Sustentabilidade e Certificação,Cerquality Consultoria em Sustentabilidade e Certificação LTDA Grupo I,FAZENDA ANGICOS,TASSO FRAGOSO -  MA,- 8.125459,- 45.789736
549,Cerquality Consultoria em Sustentabilidade e Certificação,Cerquality Consultoria em Sustentabilidade e Certificação LTDA Grupo I,FAZENDA GUARANI,SÃO DESIDÉRIO - BA,-12.902398,-46.194599
550,Cerquality Consultoria em Sustentabilidade e Certificação,Cerquality Consultoria em Sustentabilidade e Certificação LTDA Grupo I,FAZENDA ORQUÍDEAS,BARREIRAS - BA,-11.84223,-46.244109
551,Cerquality Consultoria em Sustentabilidade e Certificação,Cerquality Consultoria em Sustentabilidade e Certificação LTDA Grupo I,FAZENDA CAMPO ABERTO,BARREIRAS - BA,- 11.793402,- 45.958693
552,Cerquality Consultoria em Sustentabilidade e Certificação,Cerquality Consultoria em Sustentabilidade e Certificação LTDA Grupo I,FAZENDA BAIXÃO PRETO,RIACHÃO - MA,-8.191716,-46.461772
553,Cerquality Consultoria em Sustentabilidade e Certificação,Cerquality Consultoria em Sustentabilidade e Certificação LTDA Grupo I,FAZENDA  AGROMANTOVA  BATAVO,BALSAS - MA,-8.520959,-46.749241
554,Cerquality Consultoria em Sustentabilidade e Certificação,Cerquality Consultoria em Sustentabilidade e Certificação LTDA Grupo I,FAZENDA TABATINGA,ALTO PARNAÍBA - MA,-8.9949,-46.559639
555,Cerquality Consultoria em Sustentabilidade e Certificação,Cerquality Consultoria em Sustentabilidade e Certificação LTDA Grupo I,FAZENDA TERRA NOVA,Tasso Fragoso - MA,-8.672696,- 46.011546
556,Cerquality Consultoria em Sustentabilidade e Certificação,Cerquality Consultoria em Sustentabilidade e Certificação LTDA Grupo I,FAZENDA ARAPUÃ,BALSAS - MA,-8.12433,-46.146117
557,Cerquality Consultoria em Sustentabilidade e Certificação,Cerquality Consultoria em Sustentabilidade e Certificação LTDA Grupo I,FAZENDA APUÃ,BALSAS - MA,-8.041355,-45.976106
558,Cerquality Consultoria em Sustentabilidade e Certificação,Cerquality Consultoria em Sustentabilidade e Certificação LTDA Grupo I,FAZENDA NOSSA SENHORA DAS GRAÇAS,Tasso Fragoso - MA,-8.135828,-46.133402
559,Cerquality Consultoria em Sustentabilidade e Certificação,Cerquality Consultoria em Sustentabilidade e Certificação LTDA Grupo I,FAZENDA SAMA,LUIZ EDUARDOMAGALHÃES - BA,-12.214789,-45.958782
560,Cerquality Consultoria em Sustentabilidade e Certificação,Cerquality Consultoria em Sustentabilidade e Certificação LTDA Grupo I,FAZENDA CONDOMINIO IRMÃOS GATTO,BARREIRAS - BA,-11.83768,-46.28957
561,Cerquality Consultoria em Sustentabilidade e Certificação,Cerquality Consultoria em Sustentabilidade e Certificação LTDA Grupo I,FAZENDA CABECEIRA,TASSO FRAGOSO -  MA,-8.447452,-45.937696
562,Cerquality Consultoria em Sustentabilidade e Certificação,Cerquality Consultoria em Sustentabilidade e Certificação LTDA Grupo I,FAZENDA TEATINO,BALSAS - MA,-7.960087,-45.809129
563,Cerquality Consultoria em Sustentabilidade e Certificação,Cerquality Consultoria em Sustentabilidade e Certificação LTDA Grupo I,FAZENDA TRADIÇÃO,RIBEIRO GONÇALVES - PI,-7.798658,-45.054773
564,Cerquality Consultoria em Sustentabilidade e Certificação,Cerquality Consultoria em Sustentabilidade e Certificação LTDA Grupo I,FAZENDA GBC,CORRENTINA - BA,-13.504164,-46.113412
565,Cerquality Consultoria em Sustentabilidade e Certificação,Cerquality Consultoria em Sustentabilidade e Certificação LTDA Grupo I,FAZENDA PARANÁ,CORRENTINA - BA,-13.740469,-46.140271
566,Cerquality Consultoria em Sustentabilidade e Certificação,Cerquality Consultoria em Sustentabilidade e Certificação LTDA Grupo I,FAZENDA PORTO ALEGRE,CORRENTINA - BA,-12.804929,-45.656859
567,Cerquality Consultoria em Sustentabilidade e Certificação,Cerquality Consultoria em Sustentabilidade e Certificação LTDA Grupo I,FAZENDA FAVEIRA,Tasso Fragoso - MA,-7.849968,-45.778352
568,Cerquality Consultoria em Sustentabilidade e Certificação,Cerquality Consultoria em Sustentabilidade e Certificação LTDA Grupo I,FAZENDA ALVORADA - FRITZEN,MONTE ALEGRE - PI,-9.375476,-45.216978
569,Fazenda Nossa Senhora Aparecida,Fazenda Nossa Senhora Aparecida,Fazenda Nossa Senhora Aparecida,Agua Fria de Goiás/GO,-14825,-47.72638888888889
570,Louis Dreyfus Company ,Louis Dreyfus Company - LDC Sorriso,AgroAna,"Rodovia MT 242, Ipiranga do Norte/MT, Brasil",-12.26558611111111,-56.19936388888888
571,Louis Dreyfus Company ,Louis Dreyfus Company - LDC Sorriso,América,"Rodovia MT 220, Km 135, Tabaporã/MT, Brasil",-11.546308333333334,-56.516375
572,Louis Dreyfus Company ,Louis Dreyfus Company - LDC Sorriso,Conquista,"Rodovia MT 422 sentido União do Sul, no trevo da sete placa + 22 Km, Santa Carmem/MT, Brasil",-12.003072222222222,-54.671613888888885
573,Louis Dreyfus Company ,Louis Dreyfus Company - LDC Sorriso,Diamantino,"Rodovia BR 163, Km 797 + 15 à direita, Sinop/MT, Brasil",-12.125052777777778,-55.48029722222223
574,Louis Dreyfus Company ,Louis Dreyfus Company - LDC Sorriso,Fênix,"Rodovia MT 220, Km 90, Porto dos Gaúchos/MT, Brasil",-11.748022222222222,-56.117777777777775
575,Louis Dreyfus Company ,Louis Dreyfus Company - LDC Sorriso,JP,"Rodovia BR 242, Km 680 sentido Água Limpa, Nova Ubiratã/MT, Brasil",-13.245861111111111,-55.187263888888886
576,Louis Dreyfus Company ,Louis Dreyfus Company - LDC Sorriso,Nossa Sr? do Carmo,"Comunidade Tropical, S/N, Zona Rural, Sorriso/MT, Brasil",-12.401736111111111,-55.975455555555556
577,Louis Dreyfus Company ,Louis Dreyfus Company - LDC Sorriso,Potrich,"Rodovia MT 242, Km 50 + 5 Km à direita, Sorriso/MT, Brasil",-12.922130555555555,-55.53149722222222
578,Louis Dreyfus Company ,Louis Dreyfus Company - LDC Sorriso,Pressi,"Gleba Barreiro S/N, Zona Rural, Sorriso/MT, Brasil",-12.234741666666666,-55.76791388888889
579,Louis Dreyfus Company ,Louis Dreyfus Company - LDC Sorriso,Rio Branco,"Rodovia MT 010, 35 Km após Ipiranga do Norte sentido ""moegão da Bunge"", Ipiranga do Norte/MT, Brasil",-11.956708333333333,-56.152794444444446
580,Louis Dreyfus Company ,Louis Dreyfus Company - LDC Sorriso,Santa Felicidade,"Rodovia MT 422, Gleba Manitsua- Missu, Santa Carmen/MT, Brasil",-12.772680555555556,-55.95436666666667
581,Louis Dreyfus Company ,Louis Dreyfus Company - LDC Sorriso,Santa Helena,"Estrada do Pontal + 17 Km, Zona Rural, Sorriso/MT, Brasil",-12.505386111111111,-55.866036111111114
582,Louis Dreyfus Company ,Louis Dreyfus Company - LDC Sorriso,São José,"Rodovia MT 242, Km 140, Gleba SacKman, Nova Ubiratã/MT, Brasil",-12.818438888888888,-54.93896944444444
583,Louis Dreyfus Company ,Louis Dreyfus Company - LDC Sorriso,Sichieri,"Loteamento Teles Pires, S/N, Faz. Sichieri, Sorriso/MT, Brasil",-12.496224999999999,-55.81568333333333
584,Fazenda Uirapuru,Fazenda Uirapuru,Fazenda Uirapuru,Nova Mutum - MT,-14.143727777777777,-56.63576527777778
585,Cerquality Consultoria em Sustentabilidade e Certificação,Cerquality Consultoria em Sustentabilidade e Certificação LTDA. Grupo III,Fazemda Santa Mônica,Rondonópolis/MT,-16.984333333333336,-54.75418888888889
586,Cerquality Consultoria em Sustentabilidade e Certificação,Cerquality Consultoria em Sustentabilidade e Certificação LTDA. Grupo III,Fazemda Tolosa,Brasnorte/MT,-13.187850000000001,-57.99461111111111
587,Cerquality Consultoria em Sustentabilidade e Certificação,Cerquality Consultoria em Sustentabilidade e Certificação LTDA. Grupo III,Fazemda Caroline,Primavera do Leste/MT,-15.156175000000001,-54.146924999999996
588,Cerquality Consultoria em Sustentabilidade e Certificação,Cerquality Consultoria em Sustentabilidade e Certificação LTDA. Grupo III,Fazemda Garça Branca,Campo Verde/MT,-15.182258333333333,-54.50257222222222
589,Cerquality Consultoria em Sustentabilidade e Certificação,Cerquality Consultoria em Sustentabilidade e Certificação LTDA. Grupo III,Fazemda Rio de Janeiro,Barreiras/BA,-11.89273888888889,-46.01746388888889
590,Cerquality Consultoria em Sustentabilidade e Certificação,Cerquality Consultoria em Sustentabilidade e Certificação LTDA. Grupo III,Fazemda São Pedro,São Desidério/BA,-12.583083333333333,-46.02796111111111
591,Cerquality Consultoria em Sustentabilidade e Certificação,Cerquality Consultoria em Sustentabilidade e Certificação LTDA. Grupo III,Fazemda Serra Branca,Balsas/MA,-8.806372222222222,-46.84554444444445
592,Cerquality Consultoria em Sustentabilidade e Certificação,Cerquality Consultoria em Sustentabilidade e Certificação LTDA. Grupo III,Fazemda Graziele,Tasso Fragoso/MA,-8.448791666666667,-46.053752777777774
593,Cerquality Consultoria em Sustentabilidade e Certificação,Cerquality Consultoria em Sustentabilidade e Certificação LTDA. Grupo III,Fazemda Cambará,Correntina/BA,-13.591775,-45.99348611111111
594,Cerquality Consultoria em Sustentabilidade e Certificação,Cerquality Consultoria em Sustentabilidade e Certificação LTDA. Grupo III,Fazemda Santa Maria da Fontoura,Canabrava do Norte/MT,-10.997847222222221,-52.16065833333333
595,GGF Agro,GGF - Agro LTDA,Pau da Onça,Santa Rita do Trivelato/MT,-13.666558333333334,-55.39378611111111
596,SLC Agrícola,SLC Agricola S.A. - EU RED,Fazenda Parnaíba,"Rod MA 006, Km 120 - Tasso Fragoso - Maranhão (Brasil)",-8.514116666666666,-46.07788333333334
597,SLC Agrícola,SLC Agricola S.A. - EU RED,Fazenda Planeste,"Rod MA 140, Km 200 - Balsas - Maranhão (Brasil)",-8.553880555555557,-46.859300000000005
598,SLC Agrícola,SLC Agricola S.A. - EU RED,Fazenda Planalto,Costa Rica - Mato Grosso do Sul (Brasil),-18.211030555555556,-53.203450000000004
599,SLC Agrícola,SLC Agricola S.A. - EU RED,Fazenda Pamplona,Cristalina - Goiás (Brasil),-16.227416666666667,-47.62601111111111
600,SLC Agrícola,SLC Agricola S.A. - EU RED,Fazenda Panorama,Correntina - Bahia (Brasil),-13.408269444444445,-46.09628333333333
601,SLC Agrícola,SLC Agricola S.A. - EU RED,Fazenda Paiaguás,Diamantino - Mato Grosso (Brasil),-14.080727777777778,-57.455194444444444
602,SLC Agrícola,SLC Agricola S.A. - EU RED,Fazenda Planorte,Sapezal - Mato Grosso (Brasil),-13.936172222222222,-58.894333333333336
603,SLC Agrícola,SLC Agricola S.A.,Fazenda Parnaíba,"Rod MA 006, Km 120 - Tasso Fragoso - Maranhão (Brasil)",-8.514116666666666,-46.07788333333334
604,SLC Agrícola,SLC Agricola S.A. ,Fazenda Planeste,"Rod MA 140, Km 200 - Balsas - Maranhão (Brasil)",-8.553880555555557,-46.859300000000005
605,SLC Agrícola,SLC Agricola S.A. ,Fazenda Planalto,Costa Rica - Mato Grosso do Sul (Brasil),-18.211030555555556,-53.203450000000004
606,SLC Agrícola,SLC Agricola S.A. ,Fazenda Pamplona,Cristalina - Goiás (Brasil),-16.227416666666667,-47.62601111111111
607,SLC Agrícola,SLC Agricola S.A.,Fazenda Panorama,Correntina - Bahia (Brasil),-13.408269444444445,-46.09628333333333
608,O Telhar Agropecuária,O Telhar Agropecuária LTDA,Fazenda Nova,Santo Antônio do Leste/MT,-14.925738888888889,-53.88522777777778
609,O Telhar Agropecuária ,O Telhar Agropecuária LTDA,Fazenda Primavera,Primavera do Leste/MT,-15.258522222222222,-54.154088888888886
610,Agropastoril Jatobasso,Fazenda Verde Agropastoril Jotabasso Ltda,Sementes Jotabasso - Fazenda Verde,Rondonópolis - MT,-16.584680555555554,-54.85796944444444
611,Girassol Agrícola,Fazenda Girassol,Fazenda Girassol,Pedra Preta - MT,-16.8375,-54.04222222222222
612,Grupo Hervalense,Grupo Hervalense,Grupo Hervalense,"Rodovia BR-364 KM- 650, Diamantino - MT",-14.1864,-56629
613,Fazenda Chapadão,Fazenda Chapadão,Grupo Hervalense,"Rodovia BR-364 KM- 696, Diamantino - MT",-14.1311,-57.01
614,Fazenda Lagoa do Cervo,Fazenda Lagoa do Cervo,Grupo Hervalense,"Rodovia BR-364 KM- 592, Diamantino - MT",-14468,-56204
615,Fazenda Modelo,Fazenda Modelo (Eswalter Zanetti e Outros),Fazenda Modelo,Campo Verde - MT,-15.4422970718181,-54.9268314506474
616,Cresol Estrada de Ferro,CRESOL - Estrada de Ferro,Fazenda Matão,"Rodovia GO-330 Orizona sentido Vianópolis, Km 01 à esquerda + 2 Km à direita. Orizona- GO - Brasil",-17.014830555555555,-48.311724999999996
617,Cresol Estrada de Ferro,CRESOL - Estrada de Ferro,Fazenda Cachoeira,"Orizona sentido povoado da Cachoeira, Km 22 à esquerda. Orizona-GO - Brasil",-16.914902777777776,-48.15588611111111
618,Cresol Estrada de Ferro,CRESOL - Estrada de Ferro,Fazenda Areias,"Rodovia GO-486 Orizona sentido Borboleta, Km 04 à direita. Orizona-GO - Brasil",-17.06336388888889,-48.30898055555555
619,Cresol Estrada de Ferro,CRESOL - Estrada de Ferro,Fazenda Morro Alto,"Rodovia GO-219 Orizona sentido Distrito de Egerineu Teixeira, Km 07 à direita. Orizona- GO - Brasil",-17.05030277777778,-48.362183333333334
